{"type":"Topology","arcs":[],"objects":{"FacilityCoordsAsJsonPrecise":{"type":"GeometryCollection","geometries":[{"type":"Point","coordinates":[28.201617,-12.51875],"properties":{"Facility":"Butondo Urban Health Center","District":"Mufulira","FacilityType":"Urban Health Center"},"id":"Butondo Urban Health Center"},{"type":"Point","coordinates":[32.11263,-13.30001],"properties":{"Facility":"Kamoto Mission Hospital","District":"Mambwe","FacilityType":"Hospital - Level I"},"id":"Kamoto Mission Hospital"},{"type":"Point","coordinates":[30.234167,-13.235433],"properties":{"Facility":"Serenje Urban Clinic","District":"Serenje","FacilityType":"Hospital - Level I"},"id":"Serenje Urban Clinic"},{"type":"Point","coordinates":[23.1522833333,-15.1723833333],"properties":{"Facility":"Mabumbu Rural Health Center","District":"Mongu","FacilityType":"Rural Health Center"},"id":"Mabumbu Rural Health Center"},{"type":"Point","coordinates":[27.7338,-15.85325],"properties":{"Facility":"Mazabuka General Hospital","District":"Mazabuka","FacilityType":"Hospital - Level I"},"id":"Mazabuka General Hospital"},{"type":"Point","coordinates":[24.0848833333,-14.6518333333],"properties":{"Facility":"Shibanga Aha  Health Post","District":"Kaoma","FacilityType":"Rural Health Center"},"id":"Shibanga Aha  Health Post"},{"type":"Point","coordinates":[29.085467,-8.568433],"properties":{"Facility":"Mwabu Rural Health Center","District":"Chiengi","FacilityType":"Rural Health Center"},"id":"Mwabu Rural Health Center"},{"type":"Point","coordinates":[32.06742,-9.100535],"properties":{"Facility":"Senka Rural Health Center","District":"Mbala","FacilityType":"Rural Health Center"},"id":"Senka Rural Health Center"},{"type":"Point","coordinates":[28.906233,-11.073083],"properties":{"Facility":"Chisembe Post","District":"Mansa","FacilityType":"Rural Health Center"},"id":"Chisembe Post"},{"type":"Point","coordinates":[28.64175,-12.942133],"properties":{"Facility":"Arthur Davison HAHC","District":"Ndola","FacilityType":"Hospital Associated Health Center"},"id":"Arthur Davison HAHC"},{"type":"Point","coordinates":[28.431194,-13.163028],"properties":{"Facility":"Franco Urban Health Center","District":"Luanshya","FacilityType":"Urban Health Center"},"id":"Franco Urban Health Center"},{"type":"Point","coordinates":[23.2201,-15.1366333333],"properties":{"Facility":"Namitome Rural Health Center","District":"Mongu","FacilityType":"Rural Health Center"},"id":"Namitome Rural Health Center"},{"type":"Point","coordinates":[29.306683,-9.791417],"properties":{"Facility":"Kabila Rural Health Center","District":"Kawambwa","FacilityType":"Rural Health Center"},"id":"Kabila Rural Health Center"},{"type":"Point","coordinates":[31.216983,-10.200823],"properties":{"Facility":"Lukashya Rural Health Center","District":"Kasama","FacilityType":"Rural Health Center"},"id":"Lukashya Rural Health Center"},{"type":"Point","coordinates":[29.68705,-10.323083],"properties":{"Facility":"Lufubu Health Post","District":"Luwingu","FacilityType":"Health Post"},"id":"Lufubu Health Post"},{"type":"Point","coordinates":[26.97417,-15.35815],"properties":{"Facility":"Muunga Rural Health Center","District":"Itezhi-tezhi","FacilityType":"Rural Health Center"},"id":"Muunga Rural Health Center"},{"type":"Point","coordinates":[27.017098,-15.084317],"properties":{"Facility":"Nambala Rural Health Center","District":"Mumbwa","FacilityType":"Rural Health Center"},"id":"Nambala Rural Health Center"},{"type":"Point","coordinates":[27.7906,-12.259267],"properties":{"Facility":"Kasumbalesa Urban Health Center","District":"Chililabombwe","FacilityType":"Urban Health Center"},"id":"Kasumbalesa Urban Health Center"},{"type":"Point","coordinates":[22.5403,-15.3560166667],"properties":{"Facility":"Sihole Rural Health Center","District":"Kalabo","FacilityType":"Rural Health Center"},"id":"Sihole Rural Health Center"},{"type":"Point","coordinates":[31.333722,-12.017323],"properties":{"Facility":"Chilonga Mission Hospital","District":"Mpika","FacilityType":"Hospital - Level I"},"id":"Chilonga Mission Hospital"},{"type":"Point","coordinates":[24.289,-17.4746166667],"properties":{"Facility":"Yeta District Hospital","District":"Sesheke","FacilityType":"Hospital - Level I"},"id":"Yeta District Hospital"},{"type":"Point","coordinates":[24.9034166667,-15.9034166667],"properties":{"Facility":"Kaywala Rural Health Center","District":"Sesheke","FacilityType":"Rural Health Center"},"id":"Kaywala Rural Health Center"},{"type":"Point","coordinates":[33.3372666667,-12.4068833333],"properties":{"Facility":"Mwase Lundazi Zonal Rural","District":"Lundazi","FacilityType":"Rural Health Center"},"id":"Mwase Lundazi Zonal Rural"},{"type":"Point","coordinates":[24.120533,-10.967667],"properties":{"Facility":"Salujinga Rural Health Center","District":"Mwinilunga","FacilityType":"Rural Health Center"},"id":"Salujinga Rural Health Center"},{"type":"Point","coordinates":[24.22075,-13.026367],"properties":{"Facility":"Luansongwa Rural Health","District":"Kabompo","FacilityType":"Rural Health Center"},"id":"Luansongwa Rural Health"},{"type":"Point","coordinates":[23.7009333333,-14.8210333333],"properties":{"Facility":"Kaaba Rural Health Center","District":"Kaoma","FacilityType":"Rural Health Center"},"id":"Kaaba Rural Health Center"},{"type":"Point","coordinates":[29.8578,-9.45775],"properties":{"Facility":"Mwange Refugee Camp","District":"Mporokoso","FacilityType":"Rural Health Center"},"id":"Mwange Refugee Camp"},{"type":"Point","coordinates":[22.1007016667,-16.3168566667],"properties":{"Facility":"Shang'ombo Rural Health","District":"Shangombo","FacilityType":"Rural Health Center"},"id":"Shang'ombo Rural Health"},{"type":"Point","coordinates":[22.0838566667,-16.3169216667],"properties":{"Facility":"Shang'ombo District Hospital","District":"Shangombo","FacilityType":"Hospital - Level I"},"id":"Shang'ombo District Hospital"},{"type":"Point","coordinates":[29.726,-15.11],"properties":{"Facility":"Mpanshya HAHC","District":"Chongwe","FacilityType":"Hospital Associated Health Center"},"id":"Mpanshya HAHC"},{"type":"Point","coordinates":[24.0536666667,-15.8852],"properties":{"Facility":"Mata Rural Health Center","District":"Senanga","FacilityType":"Rural Health Center"},"id":"Mata Rural Health Center"},{"type":"Point","coordinates":[29.507733,-11.967383],"properties":{"Facility":"Kasanka Rural Health Center","District":"Samfya","FacilityType":"Rural Health Center"},"id":"Kasanka Rural Health Center"},{"type":"Point","coordinates":[27.70081,-16.21788],"properties":{"Facility":"Njola-Mwanza Rural Health","District":"Monze","FacilityType":"Rural Health Center"},"id":"Njola-Mwanza Rural Health"},{"type":"Point","coordinates":[28.092183,-12.8411],"properties":{"Facility":"Kalulushi Township Urban","District":"Kalulushi","FacilityType":"Urban Health Center"},"id":"Kalulushi Township Urban"},{"type":"Point","coordinates":[24.00915,-16.4075],"properties":{"Facility":"Mwanamwalye Rural Health","District":"Senanga","FacilityType":"Rural Health Center"},"id":"Mwanamwalye Rural Health"},{"type":"Point","coordinates":[31.94475,-13.20925],"properties":{"Facility":"Masumba Rural Health Center","District":"Mambwe","FacilityType":"Rural Health Center"},"id":"Masumba Rural Health Center"},{"type":"Point","coordinates":[30.068192,-11.200227],"properties":{"Facility":"Nsumbu Rural Health Center","District":"Chilubi","FacilityType":"Rural Health Center"},"id":"Nsumbu Rural Health Center"},{"type":"Point","coordinates":[23.1406666667,-15.13405],"properties":{"Facility":"Limulunga Stage II Rural Health","District":"Mongu","FacilityType":"Rural Health Center"},"id":"Limulunga Stage II Rural Health"},{"type":"Point","coordinates":[28.224083,-12.76945],"properties":{"Facility":"Bulangililo Urban Health Center","District":"Kitwe","FacilityType":"Urban Health Center"},"id":"Bulangililo Urban Health Center"},{"type":"Point","coordinates":[27.06675,-12.342217],"properties":{"Facility":"St. Dorothy Rural Health Center","District":"Solwezi","FacilityType":"Rural Health Center"},"id":"St. Dorothy Rural Health Center"},{"type":"Point","coordinates":[31.80717,-13.11107],"properties":{"Facility":"Kakumbi Rural Health Center","District":"Mambwe","FacilityType":"Rural Health Center"},"id":"Kakumbi Rural Health Center"},{"type":"Point","coordinates":[28.70545,-10.383733],"properties":{"Facility":"Mwense Stage II Rural Health","District":"Mwense","FacilityType":"Rural Health Center"},"id":"Mwense Stage II Rural Health"},{"type":"Point","coordinates":[28.233522,-12.53419],"properties":{"Facility":"Clinic 1 Urban Health Center","District":"Mufulira","FacilityType":"Urban Health Center"},"id":"Clinic 1 Urban Health Center"},{"type":"Point","coordinates":[26.9411,-15.30705],"properties":{"Facility":"Naluvwi Health Post","District":"Mumbwa","FacilityType":"Health Post"},"id":"Naluvwi Health Post"},{"type":"Point","coordinates":[29.541633,-9.858233],"properties":{"Facility":"Chibote Rural Health Center","District":"Kawambwa","FacilityType":"Rural Health Center"},"id":"Chibote Rural Health Center"},{"type":"Point","coordinates":[28.233598,-13.433442],"properties":{"Facility":"Kanyenda Rural Health Center","District":"Mpongwe","FacilityType":"Rural Health Center"},"id":"Kanyenda Rural Health Center"},{"type":"Point","coordinates":[28.283649,-15.416427],"properties":{"Facility":"Railway Urban Health Center","District":"Lusaka","FacilityType":"Urban Health Center"},"id":"Railway Urban Health Center"},{"type":"Point","coordinates":[32.3183898926,-13.4183333333],"properties":{"Facility":"Mpomwa Rural Health Center","District":"Mambwe","FacilityType":"Rural Health Center"},"id":"Mpomwa Rural Health Center"},{"type":"Point","coordinates":[27.75063,-16.822],"properties":{"Facility":"Sinafala Rural Health Center","District":"Gwembe","FacilityType":"Rural Health Center"},"id":"Sinafala Rural Health Center"},{"type":"Point","coordinates":[27.9407,-16.25727],"properties":{"Facility":"Hanzala Rural Health Center","District":"Mazabuka","FacilityType":"Rural Health Center"},"id":"Hanzala Rural Health Center"},{"type":"Point","coordinates":[24.1507,-15.0170183333],"properties":{"Facility":"Lui Rural Health Center","District":"Kaoma","FacilityType":"Rural Health Center"},"id":"Lui Rural Health Center"},{"type":"Point","coordinates":[28.431,-14.436],"properties":{"Facility":"Kabwe General HAHC","District":"Kabwe","FacilityType":"Hospital Associated Health Center"},"id":"Kabwe General HAHC"},{"type":"Point","coordinates":[29.77545,-10.903317],"properties":{"Facility":"Nambale Rural Health Center","District":"Samfya","FacilityType":"Rural Health Center"},"id":"Nambale Rural Health Center"},{"type":"Point","coordinates":[27.41735,-16.78882],"properties":{"Facility":"Moyo Rural Health Center","District":"Choma","FacilityType":"Rural Health Center"},"id":"Moyo Rural Health Center"},{"type":"Point","coordinates":[23.8698666667,-16.9193],"properties":{"Facility":"Silumbu Rural Health Center","District":"Sesheke","FacilityType":"Rural Health Center"},"id":"Silumbu Rural Health Center"},{"type":"Point","coordinates":[28.209483,-12.791933],"properties":{"Facility":"MARS","District":"Kitwe","FacilityType":"Urban Health Center"},"id":"MARS"},{"type":"Point","coordinates":[32.5014333333,-13.6931333333],"properties":{"Facility":"Madzimoyo Rural Health Center","District":"Chipata","FacilityType":"Rural Health Center"},"id":"Madzimoyo Rural Health Center"},{"type":"Point","coordinates":[28.202117,-13.208467],"properties":{"Facility":"Kamifungo Health Post","District":"Masaiti","FacilityType":"Health Post"},"id":"Kamifungo Health Post"},{"type":"Point","coordinates":[31.250268,-9.933338],"properties":{"Facility":"Nseluka Urban Health Center","District":"Mungwi","FacilityType":"Urban Health Center"},"id":"Nseluka Urban Health Center"},{"type":"Point","coordinates":[23.137,-15.252],"properties":{"Facility":"Lewanika Urban Health Center","District":"Mongu","FacilityType":"Hospital Associated Health Center"},"id":"Lewanika Urban Health Center"},{"type":"Point","coordinates":[28.5906,-10.7849],"properties":{"Facility":"Katuta Rural Health Center","District":"Mwense","FacilityType":"Rural Health Center"},"id":"Katuta Rural Health Center"},{"type":"Point","coordinates":[28.324367,-13.252683],"properties":{"Facility":"Kafulafuta Mission Rural Health","District":"Masaiti","FacilityType":"Rural Health Center"},"id":"Kafulafuta Mission Rural Health"},{"type":"Point","coordinates":[26.4279444444444,-12.1892777777778],"properties":{"Facility":"Solwezi General Hospital","District":"Solwezi","FacilityType":"Hospital - Level II"},"id":"Solwezi General Hospital"},{"type":"Point","coordinates":[29.167233,-8.652617],"properties":{"Facility":"Chiengi RTC","District":"Chiengi","FacilityType":"Health Post"},"id":"Chiengi RTC"},{"type":"Point","coordinates":[29.395267,-13.616683],"properties":{"Facility":"Mkushi District Hospital","District":"Mkushi","FacilityType":"Hospital - Level I"},"id":"Mkushi District Hospital"},{"type":"Point","coordinates":[28.368083,-15.556317],"properties":{"Facility":"Chisankane Rural Health Center","District":"Kafue","FacilityType":"Rural Health Center"},"id":"Chisankane Rural Health Center"},{"type":"Point","coordinates":[27.503,-16.8532],"properties":{"Facility":"Kazimaulu Health Post","District":"Choma","FacilityType":"Rural Health Center"},"id":"Kazimaulu Health Post"},{"type":"Point","coordinates":[26.5917,-16.23433],"properties":{"Facility":"Muchila Rural Health Center","District":"Namwala","FacilityType":"Rural Health Center"},"id":"Muchila Rural Health Center"},{"type":"Point","coordinates":[28.183895,-12.7837],"properties":{"Facility":"Kitwe Surgery","District":"Kitwe","FacilityType":"Health Post"},"id":"Kitwe Surgery"},{"type":"Point","coordinates":[28.653083,-12.871667],"properties":{"Facility":"Chikumbi Rural Health Center","District":"Masaiti","FacilityType":"Rural Health Center"},"id":"Chikumbi Rural Health Center"},{"type":"Point","coordinates":[30.94255,-10.137883],"properties":{"Facility":"Chilubula Health Center (St.Fedelis)","District":"Kasama","FacilityType":"Rural Health Center"},"id":"Chilubula Health Center (St.Fedelis)"},{"type":"Point","coordinates":[29.072917,-13.727267],"properties":{"Facility":"Nkumbi Rural Health Center","District":"Mkushi","FacilityType":"Rural Health Center"},"id":"Nkumbi Rural Health Center"},{"type":"Point","coordinates":[30.906083,-9.258117],"properties":{"Facility":"Chinakila Rural Health Center","District":"Mpulungu","FacilityType":"Rural Health Center"},"id":"Chinakila Rural Health Center"},{"type":"Point","coordinates":[28.658617,-13.675967],"properties":{"Facility":"Kashitu Rural Health Center","District":"Masaiti","FacilityType":"Rural Health Center"},"id":"Kashitu Rural Health Center"},{"type":"Point","coordinates":[24.188,-11.174],"properties":{"Facility":"Kawota Rural Health Center","District":"Mwinilunga","FacilityType":"Hospital Associated Health Center"},"id":"Kawota Rural Health Center"},{"type":"Point","coordinates":[25.956017,-12.517233],"properties":{"Facility":"Maheba F","District":"Solwezi","FacilityType":"Rural Health Center"},"id":"Maheba F"},{"type":"Point","coordinates":[31.058417,-9.689433],"properties":{"Facility":"Moseni Health Post","District":"Mporokoso","FacilityType":"Health Post"},"id":"Moseni Health Post"},{"type":"Point","coordinates":[28.198467,-15.3073],"properties":{"Facility":"Naluyanda Rural Health Center","District":"Chibombo","FacilityType":"Rural Health Center"},"id":"Naluyanda Rural Health Center"},{"type":"Point","coordinates":[28.243217,-12.54185],"properties":{"Facility":"Buteko Urban Health Center","District":"Mufulira","FacilityType":"Urban Health Center"},"id":"Buteko Urban Health Center"},{"type":"Point","coordinates":[28.6057,-12.925783],"properties":{"Facility":"Chipokota Mayamba Urban","District":"Ndola","FacilityType":"Urban Health Center"},"id":"Chipokota Mayamba Urban"},{"type":"Point","coordinates":[27.0363,-16.3544],"properties":{"Facility":"Mangunza Rural Health Center","District":"Choma","FacilityType":"Rural Health Center"},"id":"Mangunza Rural Health Center"},{"type":"Point","coordinates":[29.622717,-10.740833],"properties":{"Facility":"Kasuba Health Post","District":"Samfya","FacilityType":"Health Post"},"id":"Kasuba Health Post"},{"type":"Point","coordinates":[23.1849666667,-15.3838166667],"properties":{"Facility":"Sefula Rural Health Center","District":"Mongu","FacilityType":"Rural Health Center"},"id":"Sefula Rural Health Center"},{"type":"Point","coordinates":[28.734717,-12.971783],"properties":{"Facility":"Njelemani Rural Health Center","District":"Masaiti","FacilityType":"Rural Health Center"},"id":"Njelemani Rural Health Center"},{"type":"Point","coordinates":[27.887933,-12.52335],"properties":{"Facility":"Kabundi East Urban Health","District":"Chingola","FacilityType":"Urban Health Center"},"id":"Kabundi East Urban Health"},{"type":"Point","coordinates":[23.0253,-16.0686666667],"properties":{"Facility":"Kaunga Lueti Rural Health","District":"Senanga","FacilityType":"Rural Health Center"},"id":"Kaunga Lueti Rural Health"},{"type":"Point","coordinates":[28.9889,-12.202767],"properties":{"Facility":"Lungo Mukuta Rural Health","District":"Milenge","FacilityType":"Rural Health Center"},"id":"Lungo Mukuta Rural Health"},{"type":"Point","coordinates":[28.34038,-15.7865],"properties":{"Facility":"Cheeba Rural Health Center","District":"Mazabuka","FacilityType":"Rural Health Center"},"id":"Cheeba Rural Health Center"},{"type":"Point","coordinates":[26.121867,-13.74155],"properties":{"Facility":"Ntemwa Rural Health Center","District":"Kasempa","FacilityType":"Rural Health Center"},"id":"Ntemwa Rural Health Center"},{"type":"Point","coordinates":[28.44195,-15.318533],"properties":{"Facility":"ZASTI Rural Health Centre","District":"Chongwe","FacilityType":"Rural Health Center"},"id":"ZASTI Rural Health Centre"},{"type":"Point","coordinates":[29.658067,-8.469017],"properties":{"Facility":"Kaputa  Rural Health Center","District":"Kaputa","FacilityType":"Rural Health Center"},"id":"Kaputa  Rural Health Center"},{"type":"Point","coordinates":[25.9333610535,-17.5493333329],"properties":{"Facility":"Siakasipa Health Post","District":"Kazungula","FacilityType":"Health Post"},"id":"Siakasipa Health Post"},{"type":"Point","coordinates":[29.154083,-11.069467],"properties":{"Facility":"Kalaba Rural Health Center","District":"Mansa","FacilityType":"Rural Health Center"},"id":"Kalaba Rural Health Center"},{"type":"Point","coordinates":[25.687183,-11.917483],"properties":{"Facility":"Kyanyika (ZFDS W8) Rural","District":"Solwezi","FacilityType":"Rural Health Center"},"id":"Kyanyika (ZFDS W8) Rural"},{"type":"Point","coordinates":[32.9381,-13.0252666667],"properties":{"Facility":"Mwase Mphangwe Zonal Rural","District":"Lundazi","FacilityType":"Rural Health Center"},"id":"Mwase Mphangwe Zonal Rural"},{"type":"Point","coordinates":[24.255067,-12.84305],"properties":{"Facility":"Kashinakaji Rural Health Center","District":"Kabompo","FacilityType":"Rural Health Center"},"id":"Kashinakaji Rural Health Center"},{"type":"Point","coordinates":[28.734017,-9.408317],"properties":{"Facility":"Kambwali Rural Health Center","District":"Nchelenge","FacilityType":"Rural Health Center"},"id":"Kambwali Rural Health Center"},{"type":"Point","coordinates":[30.3207,-11.54305],"properties":{"Facility":"Nsalushi","District":"Samfya","FacilityType":"Rural Health Center"},"id":"Nsalushi"},{"type":"Point","coordinates":[27.03409,-17.81706],"properties":{"Facility":"Kafwambila Rural Health Center","District":"Sinazongwe","FacilityType":"Rural Health Center"},"id":"Kafwambila Rural Health Center"},{"type":"Point","coordinates":[28.639,-12.990383],"properties":{"Facility":"Masala Main Urban Health","District":"Ndola","FacilityType":"Urban Health Center"},"id":"Masala Main Urban Health"},{"type":"Point","coordinates":[25.9397773743,-17.9025555555],"properties":{"Facility":"Mukuni Rural Health Center","District":"Kazungula","FacilityType":"Rural Health Center"},"id":"Mukuni Rural Health Center"},{"type":"Point","coordinates":[28.443383,-14.459483],"properties":{"Facility":"Chowa Urban Health Center","District":"Kabwe","FacilityType":"Urban Health Center"},"id":"Chowa Urban Health Center"},{"type":"Point","coordinates":[29.724817,-15.108583],"properties":{"Facility":"Mpanshya (St. Luke) Mission Hospital","District":"Chongwe","FacilityType":"Hospital - Level I"},"id":"Mpanshya (St. Luke) Mission Hospital"},{"type":"Point","coordinates":[32.685983,-9.32395],"properties":{"Facility":"Mwenzo Rural Health Center","District":"Nakonde","FacilityType":"Rural Health Center"},"id":"Mwenzo Rural Health Center"},{"type":"Point","coordinates":[28.68065,-13.956967],"properties":{"Facility":"Tazara Urban Health Centre","District":"Kapirimposhi","FacilityType":"Health Post"},"id":"Tazara Urban Health Centre"},{"type":"Point","coordinates":[29.052233,-11.259783],"properties":{"Facility":"Mabumba Rural Health Center","District":"Mansa","FacilityType":"Rural Health Center"},"id":"Mabumba Rural Health Center"},{"type":"Point","coordinates":[32.8869833333,-11.3506166667],"properties":{"Facility":"Tembwe Rural Health Center","District":"Chama","FacilityType":"Rural Health Center"},"id":"Tembwe Rural Health Center"},{"type":"Point","coordinates":[32.2345333333,-13.8244666667],"properties":{"Facility":"Kwenje Rural Health Center","District":"Chipata","FacilityType":"Rural Health Center"},"id":"Kwenje Rural Health Center"},{"type":"Point","coordinates":[32.019533,-11.3232],"properties":{"Facility":"Lufila Rural Health Centre","District":"Mpika","FacilityType":"Rural Health Center"},"id":"Lufila Rural Health Centre"},{"type":"Point","coordinates":[24.93625,-11.69882],"properties":{"Facility":"Ntambu","District":"Mwinilunga","FacilityType":"Rural Health Center"},"id":"Ntambu"},{"type":"Point","coordinates":[31.533535,-9.88905],"properties":{"Facility":"Chimba Rural Health Center","District":"Mungwi","FacilityType":"Rural Health Center"},"id":"Chimba Rural Health Center"},{"type":"Point","coordinates":[28.84215,-9.17145],"properties":{"Facility":"Kabuta Rural Health Center","District":"Nchelenge","FacilityType":"Rural Health Center"},"id":"Kabuta Rural Health Center"},{"type":"Point","coordinates":[26.97653,-16.8047],"properties":{"Facility":"Railway Surgery Urban Health","District":"Choma","FacilityType":"Urban Health Center"},"id":"Railway Surgery Urban Health"},{"type":"Point","coordinates":[30.40805,-15.62395],"properties":{"Facility":"Luangwa Boma Rural Health Centre","District":"Luangwa","FacilityType":"Rural Health Center"},"id":"Luangwa Boma Rural Health Centre"},{"type":"Point","coordinates":[27.452017,-15.383723],"properties":{"Facility":"Keezwa Rural Health Center","District":"Mumbwa","FacilityType":"Rural Health Center"},"id":"Keezwa Rural Health Center"},{"type":"Point","coordinates":[32.3722666667,-13.8357166667],"properties":{"Facility":"Kamulaza Rural Health Center","District":"Chipata","FacilityType":"Rural Health Center"},"id":"Kamulaza Rural Health Center"},{"type":"Point","coordinates":[32.6362,-13.6382833333],"properties":{"Facility":"Chipata District Hospital","District":"Chipata","FacilityType":"Rural Health Center"},"id":"Chipata District Hospital"},{"type":"Point","coordinates":[27.10283,-17.27027],"properties":{"Facility":"Masuku Mines Terminal Rural","District":"Choma","FacilityType":"Rural Health Center"},"id":"Masuku Mines Terminal Rural"},{"type":"Point","coordinates":[29.590083,-11.817433],"properties":{"Facility":"Kalasa Mukoso Rural Health","District":"Samfya","FacilityType":"Rural Health Center"},"id":"Kalasa Mukoso Rural Health"},{"type":"Point","coordinates":[31.350605,-9.633533],"properties":{"Facility":"Rosa Rural Health Center","District":"Mungwi","FacilityType":"Rural Health Center"},"id":"Rosa Rural Health Center"},{"type":"Point","coordinates":[33.4676533333,-10.767525],"properties":{"Facility":"Kanyelele Rural Health Center","District":"Chama","FacilityType":"Rural Health Center"},"id":"Kanyelele Rural Health Center"},{"type":"Point","coordinates":[24.417485,-11.733637],"properties":{"Facility":"Mwinilunga District Hospital","District":"Mwinilunga","FacilityType":"Hospital - Level I"},"id":"Mwinilunga District Hospital"},{"type":"Point","coordinates":[25.800583,-12.81245],"properties":{"Facility":"Kichile Rural Health Center","District":"Solwezi","FacilityType":"Rural Health Center"},"id":"Kichile Rural Health Center"},{"type":"Point","coordinates":[23.5230166667,-15.4389333333],"properties":{"Facility":"Luandui Rural Health Center","District":"Mongu","FacilityType":"Rural Health Center"},"id":"Luandui Rural Health Center"},{"type":"Point","coordinates":[28.485267,-15.182867],"properties":{"Facility":"Kasenga Health Post","District":"Chongwe","FacilityType":"Health Post"},"id":"Kasenga Health Post"},{"type":"Point","coordinates":[32.70105,-11.68695],"properties":{"Facility":"Chigoma Rural Health Center","District":"Chama","FacilityType":"Urban Health Center"},"id":"Chigoma Rural Health Center"},{"type":"Point","coordinates":[32.45925,-13.8386],"properties":{"Facility":"Chikando Rural Health Center","District":"Chipata","FacilityType":"Rural Health Center"},"id":"Chikando Rural Health Center"},{"type":"Point","coordinates":[31.350872,-10.166685],"properties":{"Facility":"Mungwi Baptist Rural Health","District":"Mungwi","FacilityType":"Rural Health Center"},"id":"Mungwi Baptist Rural Health"},{"type":"Point","coordinates":[25.401633,-11.954483],"properties":{"Facility":"Chitungu Rural Health Center","District":"Solwezi","FacilityType":"Rural Health Center"},"id":"Chitungu Rural Health Center"},{"type":"Point","coordinates":[28.21716,-12.517595],"properties":{"Facility":"Clinic 5 Urban Health Center","District":"Mufulira","FacilityType":"Urban Health Center"},"id":"Clinic 5 Urban Health Center"},{"type":"Point","coordinates":[24.269217,-11.118117],"properties":{"Facility":"Kayipaka Rural Health Center","District":"Mwinilunga","FacilityType":"Rural Health Center"},"id":"Kayipaka Rural Health Center"},{"type":"Point","coordinates":[28.238683,-15.539567],"properties":{"Facility":"Mt. Makulu Urban Health","District":"Kafue","FacilityType":"Urban Health Center"},"id":"Mt. Makulu Urban Health"},{"type":"Point","coordinates":[28.9693,-11.22135],"properties":{"Facility":"Mantumbusa Rural Health","District":"Mansa","FacilityType":"Rural Health Center"},"id":"Mantumbusa Rural Health"},{"type":"Point","coordinates":[26.07375,-13.60225],"properties":{"Facility":"Mpungu Rural Health Center","District":"Kasempa","FacilityType":"Rural Health Center"},"id":"Mpungu Rural Health Center"},{"type":"Point","coordinates":[27.53349,-17.11711],"properties":{"Facility":"Buleya Malima Rural Health","District":"Sinazongwe","FacilityType":"Rural Health Center"},"id":"Buleya Malima Rural Health"},{"type":"Point","coordinates":[29.757217,-14.663217],"properties":{"Facility":"Mboshya Health Post","District":"Mkushi","FacilityType":"Rural Health Center"},"id":"Mboshya Health Post"},{"type":"Point","coordinates":[29.0505,-9.79285],"properties":{"Facility":"Munkanta Rural Health Center","District":"Kawambwa","FacilityType":"Rural Health Center"},"id":"Munkanta Rural Health Center"},{"type":"Point","coordinates":[30.80615,-10.352767],"properties":{"Facility":"Chiombo Rural Health Center","District":"Kasama","FacilityType":"Rural Health Center"},"id":"Chiombo Rural Health Center"},{"type":"Point","coordinates":[29.970283,-14.4195],"properties":{"Facility":"Chingombe Rural Health Center","District":"Mkushi","FacilityType":"Rural Health Center"},"id":"Chingombe Rural Health Center"},{"type":"Point","coordinates":[24.3238,-13.4028],"properties":{"Facility":"Loloma Mission Hospital","District":"Kabompo","FacilityType":"Hospital - Level I"},"id":"Loloma Mission Hospital"},{"type":"Point","coordinates":[30.466765,-8.500845],"properties":{"Facility":"Nsumbu Rural Health Center","District":"Kaputa","FacilityType":"Rural Health Center"},"id":"Nsumbu Rural Health Center"},{"type":"Point","coordinates":[25.2515,-15.0335],"properties":{"Facility":"Njonjolo Rural Health Center","District":"Kaoma","FacilityType":"Rural Health Center"},"id":"Njonjolo Rural Health Center"},{"type":"Point","coordinates":[31.000478,-12.600415],"properties":{"Facility":"Kalonge Pipeline","District":"Mpika","FacilityType":"Rural Health Center"},"id":"Kalonge Pipeline"},{"type":"Point","coordinates":[28.43385,-16.53345],"properties":{"Facility":"Munyama Rural Health Center","District":"Siavonga","FacilityType":"Rural Health Center"},"id":"Munyama Rural Health Center"},{"type":"Point","coordinates":[28.25207,-15.35758],"properties":{"Facility":"Chunga Health Post","District":"Lusaka","FacilityType":"Health Post"},"id":"Chunga Health Post"},{"type":"Point","coordinates":[27.39263,-16.53657],"properties":{"Facility":"Pemba Sub RuralHealth Post","District":"Choma","FacilityType":"Rural Health Center"},"id":"Pemba Sub RuralHealth Post"},{"type":"Point","coordinates":[29.80093,-10.733592],"properties":{"Facility":"Lundu Health Post","District":"Luwingu","FacilityType":"Health Post"},"id":"Lundu Health Post"},{"type":"Point","coordinates":[30.736383,-9.719],"properties":{"Facility":"Kapatu Rural Health Center","District":"Mporokoso","FacilityType":"Rural Health Center"},"id":"Kapatu Rural Health Center"},{"type":"Point","coordinates":[27.9233,-15.503383],"properties":{"Facility":"Nampundwe Rural Health Center","District":"Mumbwa","FacilityType":"Rural Health Center"},"id":"Nampundwe Rural Health Center"},{"type":"Point","coordinates":[28.6771,-13.966583],"properties":{"Facility":"Kapiri Mposhi District Hospital","District":"Kapirimposhi","FacilityType":"Hospital - Level I"},"id":"Kapiri Mposhi District Hospital"},{"type":"Point","coordinates":[24.850745,-13.483915],"properties":{"Facility":"Munyambala Rural Health","District":"Mufumbwe","FacilityType":"Rural Health Center"},"id":"Munyambala Rural Health"},{"type":"Point","coordinates":[30.089717,-9.34135],"properties":{"Facility":"Chishamwamba Rural Health","District":"Mporokoso","FacilityType":"Rural Health Center"},"id":"Chishamwamba Rural Health"},{"type":"Point","coordinates":[29.386983,-13.945033],"properties":{"Facility":"Masansa Rural Health Center","District":"Mkushi","FacilityType":"Rural Health Center"},"id":"Masansa Rural Health Center"},{"type":"Point","coordinates":[27.80542,-16.10755],"properties":{"Facility":"Mbaya Musuma Rural Health","District":"Mazabuka","FacilityType":"Rural Health Center"},"id":"Mbaya Musuma Rural Health"},{"type":"Point","coordinates":[24.7842933333,-14.7877333333],"properties":{"Facility":"Kaoma District Hospital","District":"Kaoma","FacilityType":"Hospital - Level I"},"id":"Kaoma District Hospital"},{"type":"Point","coordinates":[29.784983,-11.518683],"properties":{"Facility":"Chimembe Rural Health Center","District":"Samfya","FacilityType":"Rural Health Center"},"id":"Chimembe Rural Health Center"},{"type":"Point","coordinates":[28.642383,-14.932717],"properties":{"Facility":"Chipembi Rural Health Center","District":"Chibombo","FacilityType":"Rural Health Center"},"id":"Chipembi Rural Health Center"},{"type":"Point","coordinates":[22.7504,-15.2071333333],"properties":{"Facility":"Namatindi Rural Health Center","District":"Kalabo","FacilityType":"Rural Health Center"},"id":"Namatindi Rural Health Center"},{"type":"Point","coordinates":[28.100467,-12.837083],"properties":{"Facility":"Kalulushi Main Urban Health Center","District":"Kalulushi","FacilityType":"Urban Health Center"},"id":"Kalulushi Main Urban Health Center"},{"type":"Point","coordinates":[24.45885,-11.519367],"properties":{"Facility":"Sachibondu Rural Health Center","District":"Mwinilunga","FacilityType":"Rural Health Center"},"id":"Sachibondu Rural Health Center"},{"type":"Point","coordinates":[31.365,-8.846],"properties":{"Facility":"Mbala General HAHC","District":"Mbala","FacilityType":"Hospital Associated Health Center"},"id":"Mbala General HAHC"},{"type":"Point","coordinates":[29.57865,-13.589717],"properties":{"Facility":"Nkolonga Health Post","District":"Mkushi","FacilityType":"Health Post"},"id":"Nkolonga Health Post"},{"type":"Point","coordinates":[32.6919333333,-13.0850333333],"properties":{"Facility":"Madziatuwa Rural Health","District":"Chipata","FacilityType":"Rural Health Center"},"id":"Madziatuwa Rural Health"},{"type":"Point","coordinates":[28.156133,-15.739717],"properties":{"Facility":"Estates Urban Rural Health","District":"Kafue","FacilityType":"Urban Health Center"},"id":"Estates Urban Rural Health"},{"type":"Point","coordinates":[28.054667,-14.77725],"properties":{"Facility":"Chikobo Rural Health Center","District":"Chibombo","FacilityType":"Rural Health Center"},"id":"Chikobo Rural Health Center"},{"type":"Point","coordinates":[22.9206104279,-13.1016111112],"properties":{"Facility":"Chivombo Rural Health Center","District":"Chavuma","FacilityType":"Rural Health Center"},"id":"Chivombo Rural Health Center"},{"type":"Point","coordinates":[23.106383,-13.537317],"properties":{"Facility":"Zambezi District Hospital","District":"Zambezi","FacilityType":"Hospital - Level I"},"id":"Zambezi District Hospital"},{"type":"Point","coordinates":[30.1224,-14.117383],"properties":{"Facility":"Mboroma Health Center","District":"Mkushi","FacilityType":"Rural Health Center"},"id":"Mboroma Health Center"},{"type":"Point","coordinates":[33.1023,-12.2684],"properties":{"Facility":"Mucheleka Health Post","District":"Lundazi","FacilityType":"Health Post"},"id":"Mucheleka Health Post"},{"type":"Point","coordinates":[28.32556,-15.39917],"properties":{"Facility":"Chreso Ministries","District":"Lusaka","FacilityType":"Urban Health Center"},"id":"Chreso Ministries"},{"type":"Point","coordinates":[28.191917,-12.81675],"properties":{"Facility":"Twibukishe","District":"Kitwe","FacilityType":"Urban Health Center"},"id":"Twibukishe"},{"type":"Point","coordinates":[25.6587,-12.275617],"properties":{"Facility":"Lumwana East Rural Health","District":"Solwezi","FacilityType":"Rural Health Center"},"id":"Lumwana East Rural Health"},{"type":"Point","coordinates":[28.217233,-12.566852],"properties":{"Facility":"Kawama West Health Post","District":"Mufulira","FacilityType":"Health Post"},"id":"Kawama West Health Post"},{"type":"Point","coordinates":[24.508,-14.656],"properties":{"Facility":"Mangango Mission Hospital HAHC","District":"Kaoma","FacilityType":"Hospital Associated Health Center"},"id":"Mangango Mission Hospital HAHC"},{"type":"Point","coordinates":[28.45645,-13.61975],"properties":{"Facility":"Agape","District":"Mpongwe","FacilityType":"Health Post"},"id":"Agape"},{"type":"Point","coordinates":[24.085817,-13.30675],"properties":{"Facility":"Chikonkwelo Rural Health","District":"Kabompo","FacilityType":"Rural Health Center"},"id":"Chikonkwelo Rural Health"},{"type":"Point","coordinates":[27.6842,-12.517683],"properties":{"Facility":"Ipafu Rural Health Center","District":"Chingola","FacilityType":"Rural Health Center"},"id":"Ipafu Rural Health Center"},{"type":"Point","coordinates":[33.2530666667,-11.8841],"properties":{"Facility":"Mtwalo Rural Health Center","District":"Lundazi","FacilityType":"Rural Health Center"},"id":"Mtwalo Rural Health Center"},{"type":"Point","coordinates":[28.973417,-11.285433],"properties":{"Facility":"Katangwe Rural Health Center","District":"Mansa","FacilityType":"Rural Health Center"},"id":"Katangwe Rural Health Center"},{"type":"Point","coordinates":[32.257567,-9.38955],"properties":{"Facility":"Chozi Rural Health Center","District":"Nakonde","FacilityType":"Rural Health Center"},"id":"Chozi Rural Health Center"},{"type":"Point","coordinates":[28.80855,-11.006983],"properties":{"Facility":"Bahati Health Post","District":"Mansa","FacilityType":"Health Post"},"id":"Bahati Health Post"},{"type":"Point","coordinates":[30.400533,-10.701983],"properties":{"Facility":"Shimumbi Rural Health Center","District":"Luwingu","FacilityType":"Rural Health Center"},"id":"Shimumbi Rural Health Center"},{"type":"Point","coordinates":[28.568433,-13.334633],"properties":{"Facility":"Kafulafuta GRZ Rural Health","District":"Masaiti","FacilityType":"Rural Health Center"},"id":"Kafulafuta GRZ Rural Health"},{"type":"Point","coordinates":[27.491033,-12.70205],"properties":{"Facility":"Chinemu Rural Health Center","District":"Lufwanyama","FacilityType":"Rural Health Center"},"id":"Chinemu Rural Health Center"},{"type":"Point","coordinates":[31.184245,-8.817195],"properties":{"Facility":"Isoko Rural Health Center","District":"Mpulungu","FacilityType":"Rural Health Center"},"id":"Isoko Rural Health Center"},{"type":"Point","coordinates":[30.81,-14.555],"properties":{"Facility":"Nyimba Urban Health Centre","District":"Nyimba","FacilityType":"Hospital Associated Health Center"},"id":"Nyimba Urban Health Centre"},{"type":"Point","coordinates":[32.7048,-9.685933],"properties":{"Facility":"Kalungu Rural Health Center","District":"Isoka","FacilityType":"Rural Health Center"},"id":"Kalungu Rural Health Center"},{"type":"Point","coordinates":[24.20265,-13.59075],"properties":{"Facility":"Mpulungu District Hospital","District":"Kabompo","FacilityType":"Hospital - Level I"},"id":"Mpulungu District Hospital"},{"type":"Point","coordinates":[29.1173,-8.77645],"properties":{"Facility":"Kalembwe Rural Health Center","District":"Chiengi","FacilityType":"Rural Health Center"},"id":"Kalembwe Rural Health Center"},{"type":"Point","coordinates":[29.920817,-10.2531],"properties":{"Facility":"Luwingu District Hospital","District":"Luwingu","FacilityType":"Hospital - Level I"},"id":"Luwingu District Hospital"},{"type":"Point","coordinates":[31.7587666667,-14.2099333333],"properties":{"Facility":"Sinda Zonal Rural Health","District":"Petauke","FacilityType":"Rural Health Center"},"id":"Sinda Zonal Rural Health"},{"type":"Point","coordinates":[26.33625,-13.705917],"properties":{"Facility":"Kelongwa Rural Health Center","District":"Kasempa","FacilityType":"Rural Health Center"},"id":"Kelongwa Rural Health Center"},{"type":"Point","coordinates":[25.03335,-13.1461],"properties":{"Facility":"Mufumbwe HAHC","District":"Mufumbwe","FacilityType":"Rural Health Center"},"id":"Mufumbwe HAHC"},{"type":"Point","coordinates":[27.8759,-16.22222],"properties":{"Facility":"NKonkola Rural Health Center","District":"Mazabuka","FacilityType":"Rural Health Center"},"id":"NKonkola Rural Health Center"},{"type":"Point","coordinates":[28.29142,-15.41693],"properties":{"Facility":"Evelyn Hone College Health post","District":"Lusaka","FacilityType":"Health Post"},"id":"Evelyn Hone College Health post"},{"type":"Point","coordinates":[28.409183,-13.31965],"properties":{"Facility":"Masaiti Boma Clinic","District":"Masaiti","FacilityType":"Rural Health Center"},"id":"Masaiti Boma Clinic"},{"type":"Point","coordinates":[28.472833,-15.2671],"properties":{"Facility":"Kasisi Rural Health Center","District":"Chongwe","FacilityType":"Rural Health Center"},"id":"Kasisi Rural Health Center"},{"type":"Point","coordinates":[31.050687,-10.100567],"properties":{"Facility":"Mwamba Rural Health Center","District":"Kasama","FacilityType":"Rural Health Center"},"id":"Mwamba Rural Health Center"},{"type":"Point","coordinates":[26.28453,-15.82285],"properties":{"Facility":"Luubwe Health Post","District":"Itezhi-tezhi","FacilityType":"Health Post"},"id":"Luubwe Health Post"},{"type":"Point","coordinates":[31.37235,-14.58825],"properties":{"Facility":"Mwanjawanthu Rural Health","District":"Petauke","FacilityType":"Rural Health Center"},"id":"Mwanjawanthu Rural Health"},{"type":"Point","coordinates":[28.20045,-15.87307],"properties":{"Facility":"Nansenga Health Center","District":"Mazabuka","FacilityType":"Rural Health Center"},"id":"Nansenga Health Center"},{"type":"Point","coordinates":[23.3052166667,-16.0670333333],"properties":{"Facility":"Litambya Rural Health Center","District":"Senanga","FacilityType":"Rural Health Center"},"id":"Litambya Rural Health Center"},{"type":"Point","coordinates":[30.350808,-11.10092],"properties":{"Facility":"Mofu Rural Health Center","District":"Chilubi","FacilityType":"Rural Health Center"},"id":"Mofu Rural Health Center"},{"type":"Point","coordinates":[28.1938,-14.396533],"properties":{"Facility":"Chilumba Rural Health Center","District":"Kapirimposhi","FacilityType":"Rural Health Center"},"id":"Chilumba Rural Health Center"},{"type":"Point","coordinates":[27.53406,-16.41744],"properties":{"Facility":"Chikuni Mission Hospital","District":"Monze","FacilityType":"Hospital Associated Health Center"},"id":"Chikuni Mission Hospital"},{"type":"Point","coordinates":[30.59055,-14.3691666667],"properties":{"Facility":"Chalubilo Rural Health Center","District":"Nyimba","FacilityType":"Rural Health Center"},"id":"Chalubilo Rural Health Center"},{"type":"Point","coordinates":[24.96769,-13.683947],"properties":{"Facility":"Kabipupu Rural Health Center","District":"Mufumbwe","FacilityType":"Rural Health Center"},"id":"Kabipupu Rural Health Center"},{"type":"Point","coordinates":[30.5592,-10.971183],"properties":{"Facility":"Ndoki Rural Health Centre","District":"Luwingu","FacilityType":"Rural Health Center"},"id":"Ndoki Rural Health Centre"},{"type":"Point","coordinates":[28.269083,-15.557917],"properties":{"Facility":"Chilanga Urban Health Centre","District":"Kafue","FacilityType":"Rural Health Center"},"id":"Chilanga Urban Health Centre"},{"type":"Point","coordinates":[25.497883,-12.1157],"properties":{"Facility":"Chisasa Rural Health Center","District":"Solwezi","FacilityType":"Rural Health Center"},"id":"Chisasa Rural Health Center"},{"type":"Point","coordinates":[24.9769,-13.68947],"properties":{"Facility":"Mushima Rural Health Center","District":"Mufumbwe","FacilityType":"Rural Health Center"},"id":"Mushima Rural Health Center"},{"type":"Point","coordinates":[31.6182,-14.4191],"properties":{"Facility":"Matambazi Rural Health Center","District":"Petauke","FacilityType":"Rural Health Center"},"id":"Matambazi Rural Health Center"},{"type":"Point","coordinates":[28.286097,-15.339448],"properties":{"Facility":"Chazanga Urban Health Center","District":"Lusaka","FacilityType":"Urban Health Center"},"id":"Chazanga Urban Health Center"},{"type":"Point","coordinates":[28.42011,-13.154139],"properties":{"Facility":"Mikomfwa Health Center","District":"Luanshya","FacilityType":"Urban Health Center"},"id":"Mikomfwa Health Center"},{"type":"Point","coordinates":[30.901117,-10.4171],"properties":{"Facility":"Mwasha Health Post","District":"Kasama","FacilityType":"Health Post"},"id":"Mwasha Health Post"},{"type":"Point","coordinates":[30.235217,-13.234283],"properties":{"Facility":"Serenje Hospital HAHC","District":"Serenje","FacilityType":"Hospital Associated Health Center"},"id":"Serenje Hospital HAHC"},{"type":"Point","coordinates":[27.54003,-16.5766],"properties":{"Facility":"Kasikili Health Post","District":"Choma","FacilityType":"Rural Health Center"},"id":"Kasikili Health Post"},{"type":"Point","coordinates":[27.8693,-15.230983],"properties":{"Facility":"Mboshya Rural Health Center","District":"Chibombo","FacilityType":"Rural Health Center"},"id":"Mboshya Rural Health Center"},{"type":"Point","coordinates":[30.20795,-15.05],"properties":{"Facility":"Sinyawagora Rural Health Centre","District":"Luangwa","FacilityType":"Rural Health Center"},"id":"Sinyawagora Rural Health Centre"},{"type":"Point","coordinates":[28.465111,-13.068722],"properties":{"Facility":"Fisenge Urban Health Center","District":"Luanshya","FacilityType":"Urban Health Center"},"id":"Fisenge Urban Health Center"},{"type":"Point","coordinates":[29.683833,-9.670867],"properties":{"Facility":"Sunkutu Rural Health Center","District":"Mporokoso","FacilityType":"Rural Health Center"},"id":"Sunkutu Rural Health Center"},{"type":"Point","coordinates":[28.3772,-14.983417],"properties":{"Facility":"Chisamba Rural Health Center","District":"Chibombo","FacilityType":"Rural Health Center"},"id":"Chisamba Rural Health Center"},{"type":"Point","coordinates":[32.3696833333,-10.6855666667],"properties":{"Facility":"Chilubanama Rural Health","District":"Chama","FacilityType":"Rural Health Center"},"id":"Chilubanama Rural Health"},{"type":"Point","coordinates":[32.63445,-10.1548],"properties":{"Facility":"Isoka OPD","District":"Isoka","FacilityType":"Urban Health Center"},"id":"Isoka OPD"},{"type":"Point","coordinates":[28.240617,-12.57275],"properties":{"Facility":"Kamuchanga District Hospital","District":"Mufulira","FacilityType":"Hospital - Level I"},"id":"Kamuchanga District Hospital"},{"type":"Point","coordinates":[28.44098,-15.85953],"properties":{"Facility":"Kafue Gorge Hospital","District":"Mazabuka","FacilityType":"Hospital - Level I"},"id":"Kafue Gorge Hospital"},{"type":"Point","coordinates":[30.016967,-11.117808],"properties":{"Facility":"Santa Maria Rural Health","District":"Chilubi","FacilityType":"Rural Health Center"},"id":"Santa Maria Rural Health"},{"type":"Point","coordinates":[30.633673,-11.300533],"properties":{"Facility":"Mayuka Rural Health Center","District":"Chilubi","FacilityType":"Rural Health Center"},"id":"Mayuka Rural Health Center"},{"type":"Point","coordinates":[29.053033,-8.936217],"properties":{"Facility":"Sambula Rural Health Center","District":"Chiengi","FacilityType":"Rural Health Center"},"id":"Sambula Rural Health Center"},{"type":"Point","coordinates":[25.83078,-17.84858],"properties":{"Facility":"DALICE Clinic","District":"Livingstone","FacilityType":"Urban Health Center"},"id":"DALICE Clinic"},{"type":"Point","coordinates":[22.4334183333,-14.13412],"properties":{"Facility":"Sikunduko RHC","District":"Lukulu","FacilityType":"Rural Health Center"},"id":"Sikunduko RHC"},{"type":"Point","coordinates":[29.665867,-14.862917],"properties":{"Facility":"Shikabeta Rural Health Center","District":"Chongwe","FacilityType":"Rural Health Center"},"id":"Shikabeta Rural Health Center"},{"type":"Point","coordinates":[31.6562333333,-14.0255],"properties":{"Facility":"Chitawe Rural Health Center","District":"Katete","FacilityType":"Rural Health Center"},"id":"Chitawe Rural Health Center"},{"type":"Point","coordinates":[24.23895,-17.4694],"properties":{"Facility":"Katima Mulilo Rural Health","District":"Sesheke","FacilityType":"Rural Health Center"},"id":"Katima Mulilo Rural Health"},{"type":"Point","coordinates":[24.6399666667,-17.2847333333],"properties":{"Facility":"Masese Rural Health Center","District":"Sesheke","FacilityType":"Rural Health Center"},"id":"Masese Rural Health Center"},{"type":"Point","coordinates":[29.667017,-9.471417],"properties":{"Facility":"Chiwala Rural Health Center","District":"Mporokoso","FacilityType":"Rural Health Center"},"id":"Chiwala Rural Health Center"},{"type":"Point","coordinates":[28.52889,-14.49853],"properties":{"Facility":"Mpima Correctional Urban Health","District":"Kabwe","FacilityType":"Urban Health Center"},"id":"Mpima Correctional Urban Health"},{"type":"Point","coordinates":[31.0181833333,-14.5347833333],"properties":{"Facility":"Chipembe Rural Health Center","District":"Nyimba","FacilityType":"Rural Health Center"},"id":"Chipembe Rural Health Center"},{"type":"Point","coordinates":[27.71865,-13.134833],"properties":{"Facility":"Chikabuke Health Center","District":"Lufwanyama","FacilityType":"Rural Health Center"},"id":"Chikabuke Health Center"},{"type":"Point","coordinates":[26.55695,-17.38747],"properties":{"Facility":"Luyaba Rural Health Center","District":"Kalomo","FacilityType":"Rural Health Center"},"id":"Luyaba Rural Health Center"},{"type":"Point","coordinates":[23.3904,-16.38615],"properties":{"Facility":"Ngundi Health Post","District":"Senanga","FacilityType":"Health Post"},"id":"Ngundi Health Post"},{"type":"Point","coordinates":[29.734017,-10.753017],"properties":{"Facility":"Kasaba / St. Margaret's Mission Hospital","District":"Samfya","FacilityType":"Hospital - Level I"},"id":"Kasaba / St. Margaret's Mission Hospital"},{"type":"Point","coordinates":[23.7413333333,-14.5505133333],"properties":{"Facility":"Winda Rural Health Center","District":"Kaoma","FacilityType":"Rural Health Center"},"id":"Winda Rural Health Center"},{"type":"Point","coordinates":[27.11717,-16.1841],"properties":{"Facility":"Hamangaba Rural Health","District":"Monze","FacilityType":"Rural Health Center"},"id":"Hamangaba Rural Health"},{"type":"Point","coordinates":[31.7580333333,-13.9524166667],"properties":{"Facility":"Mwanika Rural Health Center","District":"Petauke","FacilityType":"Rural Health Center"},"id":"Mwanika Rural Health Center"},{"type":"Point","coordinates":[33.0369666667,-11.0195],"properties":{"Facility":"Nthonkho Rural Health Center","District":"Chama","FacilityType":"Rural Health Center"},"id":"Nthonkho Rural Health Center"},{"type":"Point","coordinates":[32.276617,-9.203183],"properties":{"Facility":"Ntantumbila Rural Health","District":"Nakonde","FacilityType":"Rural Health Center"},"id":"Ntantumbila Rural Health"},{"type":"Point","coordinates":[27.55278,-16.4207],"properties":{"Facility":"Charles Lwanga Rural Health","District":"Monze","FacilityType":"Rural Health Center"},"id":"Charles Lwanga Rural Health"},{"type":"Point","coordinates":[28.45655,-11.373717],"properties":{"Facility":"Matanda Rural Health Center","District":"Mansa","FacilityType":"Rural Health Center"},"id":"Matanda Rural Health Center"},{"type":"Point","coordinates":[25.124817,-11.81945],"properties":{"Facility":"Lumwana West Rural Health","District":"Mwinilunga","FacilityType":"Rural Health Center"},"id":"Lumwana West Rural Health"},{"type":"Point","coordinates":[30.700178,-9.907767],"properties":{"Facility":"Misengo Rural Health Center","District":"Kasama","FacilityType":"Rural Health Center"},"id":"Misengo Rural Health Center"},{"type":"Point","coordinates":[22.1035833333,-14.2727333333],"properties":{"Facility":"Lukena Rural Health Center","District":"Kalabo","FacilityType":"Rural Health Center"},"id":"Lukena Rural Health Center"},{"type":"Point","coordinates":[30.351833,-12.462283],"properties":{"Facility":"Chalilo Health Post","District":"Serenje","FacilityType":"Rural Health Center"},"id":"Chalilo Health Post"},{"type":"Point","coordinates":[28.68995,-10.009917],"properties":{"Facility":"Mununshi Rural Health Center","District":"Mwense","FacilityType":"Rural Health Center"},"id":"Mununshi Rural Health Center"},{"type":"Point","coordinates":[28.401133,-11.505617],"properties":{"Facility":"Kalyongo Rural Health Center","District":"Mansa","FacilityType":"Rural Health Center"},"id":"Kalyongo Rural Health Center"},{"type":"Point","coordinates":[31.017467,-12.800283],"properties":{"Facility":"Lubunga Rural Health Centre","District":"Mpika","FacilityType":"Rural Health Center"},"id":"Lubunga Rural Health Centre"},{"type":"Point","coordinates":[24.9532333333,-16.7071333333],"properties":{"Facility":"Sichili Mission Hospital","District":"Sesheke","FacilityType":"Hospital - Level I"},"id":"Sichili Mission Hospital"},{"type":"Point","coordinates":[31.017532,-13.316868],"properties":{"Facility":"Lusiwasi Health Post","District":"Serenje","FacilityType":"Health Post"},"id":"Lusiwasi Health Post"},{"type":"Point","coordinates":[28.310194,-13.121083],"properties":{"Facility":"Kawama Urban Health Center","District":"Luanshya","FacilityType":"Urban Health Center"},"id":"Kawama Urban Health Center"},{"type":"Point","coordinates":[29.5711,-11.171833],"properties":{"Facility":"Mundubi Rural Health Center","District":"Samfya","FacilityType":"Rural Health Center"},"id":"Mundubi Rural Health Center"},{"type":"Point","coordinates":[28.460233,-14.404917],"properties":{"Facility":"Natuseko Urban Health Center","District":"Kabwe","FacilityType":"Urban Health Center"},"id":"Natuseko Urban Health Center"},{"type":"Point","coordinates":[23.825483,-13.392233],"properties":{"Facility":"Kalunga Rural Health Center","District":"Kabompo","FacilityType":"Rural Health Center"},"id":"Kalunga Rural Health Center"},{"type":"Point","coordinates":[28.071333,-13.570967],"properties":{"Facility":"Nampamba Rural Health Center","District":"Mpongwe","FacilityType":"Rural Health Center"},"id":"Nampamba Rural Health Center"},{"type":"Point","coordinates":[27.31685,-15.9668],"properties":{"Facility":"Banakaila Rural Health Center","District":"Monze","FacilityType":"Rural Health Center"},"id":"Banakaila Rural Health Center"},{"type":"Point","coordinates":[30.8087833333,-14.5535],"properties":{"Facility":"Nyimba District Hospital","District":"Nyimba","FacilityType":"Hospital - Level I"},"id":"Nyimba District Hospital"},{"type":"Point","coordinates":[28.003967,-14.351617],"properties":{"Facility":"Waya Rural Health Center","District":"Kapirimposhi","FacilityType":"Rural Health Center"},"id":"Waya Rural Health Center"},{"type":"Point","coordinates":[28.267033,-12.570633],"properties":{"Facility":"Twatasha Urban Health Center","District":"Mufulira","FacilityType":"Urban Health Center"},"id":"Twatasha Urban Health Center"},{"type":"Point","coordinates":[24.0356,-11.10785],"properties":{"Facility":"Jimbe Rural Health Center","District":"Mwinilunga","FacilityType":"Rural Health Center"},"id":"Jimbe Rural Health Center"},{"type":"Point","coordinates":[24.1013,-13.718783],"properties":{"Facility":"Nkulwashi Rural Health Center","District":"Kabompo","FacilityType":"Rural Health Center"},"id":"Nkulwashi Rural Health Center"},{"type":"Point","coordinates":[30.1371,-12.698917],"properties":{"Facility":"Mapepala Rural Health Center","District":"Serenje","FacilityType":"Rural Health Center"},"id":"Mapepala Rural Health Center"},{"type":"Point","coordinates":[27.5216333333,-13.7569],"properties":{"Facility":"Mushiwe Rural Health Center","District":"Mpongwe","FacilityType":"Rural Health Center"},"id":"Mushiwe Rural Health Center"},{"type":"Point","coordinates":[32.6414333333,-13.5220666667],"properties":{"Facility":"Mnoro Rural Health Center","District":"Chipata","FacilityType":"Rural Health Center"},"id":"Mnoro Rural Health Center"},{"type":"Point","coordinates":[23.100725,-16.383745],"properties":{"Facility":"Nalwashi Rural Health Center","District":"Shangombo","FacilityType":"Rural Health Center"},"id":"Nalwashi Rural Health Center"},{"type":"Point","coordinates":[32.4856333333,-13.7568833333],"properties":{"Facility":"Chipungo Rural Health Center","District":"Chipata","FacilityType":"Rural Health Center"},"id":"Chipungo Rural Health Center"},{"type":"Point","coordinates":[29.421467,-9.773233],"properties":{"Facility":"Chama Rural Health Center","District":"Kawambwa","FacilityType":"Rural Health Center"},"id":"Chama Rural Health Center"},{"type":"Point","coordinates":[26.96942,-16.80683],"properties":{"Facility":"Prisons Urban Health Center","District":"Choma","FacilityType":"Urban Health Center"},"id":"Prisons Urban Health Center"},{"type":"Point","coordinates":[28.333558,-12.867142],"properties":{"Facility":"Kamfinsa Urban Health Center","District":"Kitwe","FacilityType":"Urban Health Center"},"id":"Kamfinsa Urban Health Center"},{"type":"Point","coordinates":[27.717608,-15.267062],"properties":{"Facility":"Mukulaikwa Rural Health Center","District":"Mumbwa","FacilityType":"Rural Health Center"},"id":"Mukulaikwa Rural Health Center"},{"type":"Point","coordinates":[32.8715,-12.68795],"properties":{"Facility":"Chikomeni Rural Health Center","District":"Lundazi","FacilityType":"Rural Health Center"},"id":"Chikomeni Rural Health Center"},{"type":"Point","coordinates":[29.871717,-8.416817],"properties":{"Facility":"Kalaba Rural Health Center","District":"Kaputa","FacilityType":"Rural Health Center"},"id":"Kalaba Rural Health Center"},{"type":"Point","coordinates":[31.9728,-13.9258666667],"properties":{"Facility":"Chinkhombe Rural Health","District":"Katete","FacilityType":"Rural Health Center"},"id":"Chinkhombe Rural Health"},{"type":"Point","coordinates":[26.603017,-13.352333],"properties":{"Facility":"Nyoka Rural Health Center","District":"Kasempa","FacilityType":"Rural Health Center"},"id":"Nyoka Rural Health Center"},{"type":"Point","coordinates":[28.700982,-14.301592],"properties":{"Facility":"Chibwe Rural Health Center","District":"Kapirimposhi","FacilityType":"Rural Health Center"},"id":"Chibwe Rural Health Center"},{"type":"Point","coordinates":[26.202,-17.318],"properties":{"Facility":"Zimba Mission HAHC","District":"Kalomo","FacilityType":"Hospital Associated Health Center"},"id":"Zimba Mission HAHC"},{"type":"Point","coordinates":[25.6263332367,-17.6563888889],"properties":{"Facility":"Sekute Health Post","District":"Kazungula","FacilityType":"Health Post"},"id":"Sekute Health Post"},{"type":"Point","coordinates":[32.907817,-9.602733],"properties":{"Facility":"Mwenichanka Rural Health","District":"Nakonde","FacilityType":"Rural Health Center"},"id":"Mwenichanka Rural Health"},{"type":"Point","coordinates":[26.155083,-12.5552],"properties":{"Facility":"Mumena Rural Health Center","District":"Solwezi","FacilityType":"Rural Health Center"},"id":"Mumena Rural Health Center"},{"type":"Point","coordinates":[28.4466,-14.4524],"properties":{"Facility":"Kabwe Zambia Railways","District":"Kabwe","FacilityType":"Urban Health Center"},"id":"Kabwe Zambia Railways"},{"type":"Point","coordinates":[30.134977,-10.818102],"properties":{"Facility":"Chifwenge Rural Health Center","District":"Chilubi","FacilityType":"Rural Health Center"},"id":"Chifwenge Rural Health Center"},{"type":"Point","coordinates":[28.76737,-10.283595],"properties":{"Facility":"Mubende Rural Health Center","District":"Mwense","FacilityType":"Rural Health Center"},"id":"Mubende Rural Health Center"},{"type":"Point","coordinates":[27.997183,-15.196333],"properties":{"Facility":"Chipeso Rural Health Center","District":"Chibombo","FacilityType":"Rural Health Center"},"id":"Chipeso Rural Health Center"},{"type":"Point","coordinates":[23.8570333333,-14.4341833333],"properties":{"Facility":"Mayankwa Rural Health Center","District":"Lukulu","FacilityType":"Rural Health Center"},"id":"Mayankwa Rural Health Center"},{"type":"Point","coordinates":[29.736517,-11.635867],"properties":{"Facility":"Kapata E1 Rural Health Center","District":"Samfya","FacilityType":"Rural Health Center"},"id":"Kapata E1 Rural Health Center"},{"type":"Point","coordinates":[28.1536,-15.97663],"properties":{"Facility":"Naluama Rural Health Center","District":"Mazabuka","FacilityType":"Rural Health Center"},"id":"Naluama Rural Health Center"},{"type":"Point","coordinates":[28.23705,-12.80305],"properties":{"Facility":"CBU Urban Health Center","District":"Kitwe","FacilityType":"Urban Health Center"},"id":"CBU Urban Health Center"},{"type":"Point","coordinates":[23.9003266667,-15.06727],"properties":{"Facility":"Nalwei Rural Health Center","District":"Mongu","FacilityType":"Rural Health Center"},"id":"Nalwei Rural Health Center"},{"type":"Point","coordinates":[31.45555,-11.704867],"properties":{"Facility":"ZCA Rural Health Centre","District":"Mpika","FacilityType":"Rural Health Center"},"id":"ZCA Rural Health Centre"},{"type":"Point","coordinates":[23.0221666667,-17.3009533333],"properties":{"Facility":"Sinjembela Rural Health Center","District":"Shangombo","FacilityType":"Rural Health Center"},"id":"Sinjembela Rural Health Center"},{"type":"Point","coordinates":[32.5726666667,-13.9337833333],"properties":{"Facility":"Bwanunkha Rural Health Center","District":"Chadiza","FacilityType":"Rural Health Center"},"id":"Bwanunkha Rural Health Center"},{"type":"Point","coordinates":[27.7505,-15.85047],"properties":{"Facility":"Nakambala Urban Health","District":"Mazabuka","FacilityType":"Urban Health Center"},"id":"Nakambala Urban Health"},{"type":"Point","coordinates":[23.1672783333,-14.8507933333],"properties":{"Facility":"Mwanawina Rural Health","District":"Mongu","FacilityType":"Rural Health Center"},"id":"Mwanawina Rural Health"},{"type":"Point","coordinates":[28.4269,-14.5266],"properties":{"Facility":"Kasavasa Rural Health Center","District":"Kabwe","FacilityType":"Rural Health Center"},"id":"Kasavasa Rural Health Center"},{"type":"Point","coordinates":[27.3088,-16.67393],"properties":{"Facility":"Muzoka Rural Health Center","District":"Choma","FacilityType":"Rural Health Center"},"id":"Muzoka Rural Health Center"},{"type":"Point","coordinates":[23.325183,-14.0565],"properties":{"Facility":"Mpindi Rural Health Center","District":"Zambezi","FacilityType":"Rural Health Center"},"id":"Mpindi Rural Health Center"},{"type":"Point","coordinates":[32.6523333333,-13.8055833333],"properties":{"Facility":"Makwe Health Post","District":"Chipata","FacilityType":"Health Post"},"id":"Makwe Health Post"},{"type":"Point","coordinates":[28.2415277777778,-12.5479722222222],"properties":{"Facility":"Ronald Ross General Hospital","District":"Mufulira","FacilityType":"Hospital - Level II"},"id":"Ronald Ross General Hospital"},{"type":"Point","coordinates":[32.32595,-14.2424833333],"properties":{"Facility":"Chanida Rural Health Center","District":"Chadiza","FacilityType":"Rural Health Center"},"id":"Chanida Rural Health Center"},{"type":"Point","coordinates":[32.38345,-10.9922833333],"properties":{"Facility":"Lundu Rural Health Center","District":"Chama","FacilityType":"Rural Health Center"},"id":"Lundu Rural Health Center"},{"type":"Point","coordinates":[27.00222,-17.0672],"properties":{"Facility":"Simakutu Rural Health Center","District":"Choma","FacilityType":"Rural Health Center"},"id":"Simakutu Rural Health Center"},{"type":"Point","coordinates":[31.3841166667,-14.4346333333],"properties":{"Facility":"Chisenjere Rural Health Center","District":"Petauke","FacilityType":"Rural Health Center"},"id":"Chisenjere Rural Health Center"},{"type":"Point","coordinates":[28.140267,-12.609333],"properties":{"Facility":"Lukoshi Rural Health Center","District":"Kalulushi","FacilityType":"Rural Health Center"},"id":"Lukoshi Rural Health Center"},{"type":"Point","coordinates":[23.218767,-13.291183],"properties":{"Facility":"Dipalata Rural Health Center","District":"Zambezi","FacilityType":"Rural Health Center"},"id":"Dipalata Rural Health Center"},{"type":"Point","coordinates":[30.802833,-10.893317],"properties":{"Facility":"Mbusa Rural Health Center","District":"Kasama","FacilityType":"Rural Health Center"},"id":"Mbusa Rural Health Center"},{"type":"Point","coordinates":[26.96855,-16.80513],"properties":{"Facility":"Choma  HAHC","District":"Choma","FacilityType":"Hospital Associated Health Center"},"id":"Choma  HAHC"},{"type":"Point","coordinates":[27.81682,-12.35058],"properties":{"Facility":"Shaft 3 Clinic","District":"Chililabombwe","FacilityType":"Urban Health Center"},"id":"Shaft 3 Clinic"},{"type":"Point","coordinates":[22.85405,-15.39325],"properties":{"Facility":"Lukona Rural Health Center","District":"Kalabo","FacilityType":"Rural Health Center"},"id":"Lukona Rural Health Center"},{"type":"Point","coordinates":[25.8335,-13.3084],"properties":{"Facility":"Dengwe Rural Health Center","District":"Kasempa","FacilityType":"Rural Health Center"},"id":"Dengwe Rural Health Center"},{"type":"Point","coordinates":[25.771867,-12.0909],"properties":{"Facility":"Mine Process Plant FAS","District":"Solwezi","FacilityType":"Rural Health Center"},"id":"Mine Process Plant FAS"},{"type":"Point","coordinates":[23.3407,-15.6581166667],"properties":{"Facility":"Litoya Rural Health Center","District":"Senanga","FacilityType":"Rural Health Center"},"id":"Litoya Rural Health Center"},{"type":"Point","coordinates":[27.672733,-12.802333],"properties":{"Facility":"Shimukunami Rural Health","District":"Lufwanyama","FacilityType":"Rural Health Center"},"id":"Shimukunami Rural Health"},{"type":"Point","coordinates":[27.75083,-15.85047],"properties":{"Facility":"Kaonga Urban Health Center","District":"Mazabuka","FacilityType":"Urban Health Center"},"id":"Kaonga Urban Health Center"},{"type":"Point","coordinates":[28.45078,-16.13348],"properties":{"Facility":"Chikanzaya Rural Health Center","District":"Siavonga","FacilityType":"Rural Health Center"},"id":"Chikanzaya Rural Health Center"},{"type":"Point","coordinates":[26.08558,-16.0725],"properties":{"Facility":"Nanzhila Rural Health Center","District":"Itezhi-tezhi","FacilityType":"Rural Health Center"},"id":"Nanzhila Rural Health Center"},{"type":"Point","coordinates":[28.05765,-16.20085],"properties":{"Facility":"Nadezwe Rural Health Center","District":"Mazabuka","FacilityType":"Rural Health Center"},"id":"Nadezwe Rural Health Center"},{"type":"Point","coordinates":[32.2857,-12.4211333333],"properties":{"Facility":"Chitungulu Rural Health Center","District":"Lundazi","FacilityType":"Rural Health Center"},"id":"Chitungulu Rural Health Center"},{"type":"Point","coordinates":[29.072667,-9.789417],"properties":{"Facility":"KCC","District":"Kawambwa","FacilityType":"Rural Health Center"},"id":"KCC"},{"type":"Point","coordinates":[28.385683,-13.135183],"properties":{"Facility":"Roan Antelope HAHC","District":"Luanshya","FacilityType":"Hospital Associated Health Center"},"id":"Roan Antelope HAHC"},{"type":"Point","coordinates":[30.147633,-13.592167],"properties":{"Facility":"Chibale Rural Health Center","District":"Serenje","FacilityType":"Rural Health Center"},"id":"Chibale Rural Health Center"},{"type":"Point","coordinates":[27.050898,-14.967637],"properties":{"Facility":"Mumbwa District Hospital","District":"Mumbwa","FacilityType":"Hospital - Level I"},"id":"Mumbwa District Hospital"},{"type":"Point","coordinates":[25.1896,-14.8717],"properties":{"Facility":"Kahare Rural Health Center","District":"Kaoma","FacilityType":"Rural Health Center"},"id":"Kahare Rural Health Center"},{"type":"Point","coordinates":[27.22645,-16.96707],"properties":{"Facility":"Sikalongo Rural Health Center","District":"Choma","FacilityType":"Rural Health Center"},"id":"Sikalongo Rural Health Center"},{"type":"Point","coordinates":[32.08623,-13.40883],"properties":{"Facility":"Chikowa Rural Health Center","District":"Mambwe","FacilityType":"Rural Health Center"},"id":"Chikowa Rural Health Center"},{"type":"Point","coordinates":[31.4668833333,-14.2020833333],"properties":{"Facility":"Luamphaande Rural Health","District":"Petauke","FacilityType":"Rural Health Center"},"id":"Luamphaande Rural Health"},{"type":"Point","coordinates":[28.308372,-15.430905],"properties":{"Facility":"Prisons Urban Health Center","District":"Lusaka","FacilityType":"Urban Health Center"},"id":"Prisons Urban Health Center"},{"type":"Point","coordinates":[25.95232,-15.90705],"properties":{"Facility":"Ngoma Rural Health Center","District":"Itezhi-tezhi","FacilityType":"Health Post"},"id":"Ngoma Rural Health Center"},{"type":"Point","coordinates":[29.672167,-11.542517],"properties":{"Facility":"Chipako Rural Health Center","District":"Samfya","FacilityType":"Rural Health Center"},"id":"Chipako Rural Health Center"},{"type":"Point","coordinates":[27.6005,-16.48418],"properties":{"Facility":"Gwembe District Hospital","District":"Gwembe","FacilityType":"Hospital - Level I"},"id":"Gwembe District Hospital"},{"type":"Point","coordinates":[33.2213,-12.2008666667],"properties":{"Facility":"Phikamalaza Rural Health","District":"Lundazi","FacilityType":"Rural Health Center"},"id":"Phikamalaza Rural Health"},{"type":"Point","coordinates":[31.100997,-11.067495],"properties":{"Facility":"Mpepo Rural Health Centre","District":"Mpika","FacilityType":"Rural Health Center"},"id":"Mpepo Rural Health Centre"},{"type":"Point","coordinates":[26.418,-15.75635],"properties":{"Facility":"Masele Urban Health Center","District":"Namwala","FacilityType":"Urban Health Center"},"id":"Masele Urban Health Center"},{"type":"Point","coordinates":[28.587517,-12.988867],"properties":{"Facility":"Twapia Urban Health Center","District":"Ndola","FacilityType":"Rural Health Center"},"id":"Twapia Urban Health Center"},{"type":"Point","coordinates":[27.55008,-17.05068],"properties":{"Facility":"Sinamalima Rural Health","District":"Sinazongwe","FacilityType":"Rural Health Center"},"id":"Sinamalima Rural Health"},{"type":"Point","coordinates":[32.114,-13.302],"properties":{"Facility":"Kamoto HAHC","District":"Mambwe","FacilityType":"Hospital Associated Health Center"},"id":"Kamoto HAHC"},{"type":"Point","coordinates":[28.804933,-10.7068],"properties":{"Facility":"Musonda Falls Rural Health","District":"Mwense","FacilityType":"Rural Health Center"},"id":"Musonda Falls Rural Health"},{"type":"Point","coordinates":[26.52145,-12.263733],"properties":{"Facility":"Kapijimpanga Rural Health Center","District":"Solwezi","FacilityType":"Rural Health Center"},"id":"Kapijimpanga Rural Health Center"},{"type":"Point","coordinates":[26.68419,-16.88344],"properties":{"Facility":"Kalonda Rural Health Center","District":"Kalomo","FacilityType":"Rural Health Center"},"id":"Kalonda Rural Health Center"},{"type":"Point","coordinates":[28.235117,-12.835],"properties":{"Facility":"Natwange Mopani Clinic","District":"Kitwe","FacilityType":"Urban Health Center"},"id":"Natwange Mopani Clinic"},{"type":"Point","coordinates":[33.0566333333,-14.0242],"properties":{"Facility":"Sindemisale Rural Health","District":"Chadiza","FacilityType":"Rural Health Center"},"id":"Sindemisale Rural Health"},{"type":"Point","coordinates":[25.85883,-17.85336],"properties":{"Facility":"MCH","District":"Livingstone","FacilityType":"Urban Health Center"},"id":"MCH"},{"type":"Point","coordinates":[28.401317,-14.385183],"properties":{"Facility":"Mukobeko Medium Prison","District":"Kabwe","FacilityType":"Health Post"},"id":"Mukobeko Medium Prison"},{"type":"Point","coordinates":[28.589883,-12.956417],"properties":{"Facility":"Dola Hill Urban Health Center","District":"Ndola","FacilityType":"Urban Health Center"},"id":"Dola Hill Urban Health Center"},{"type":"Point","coordinates":[25.205433,-11.291217],"properties":{"Facility":"Kakoma Rural Health Center","District":"Mwinilunga","FacilityType":"Rural Health Center"},"id":"Kakoma Rural Health Center"},{"type":"Point","coordinates":[25.3745666667,-14.8685166667],"properties":{"Facility":"Nkeyema Rural Health Center","District":"Kaoma","FacilityType":"Rural Health Center"},"id":"Nkeyema Rural Health Center"},{"type":"Point","coordinates":[29.350383,-13.5612],"properties":{"Facility":"Munsakamba ZNS Camp Health Post","District":"Mkushi","FacilityType":"Health Post"},"id":"Munsakamba ZNS Camp Health Post"},{"type":"Point","coordinates":[23.25455,-15.5723166667],"properties":{"Facility":"Muoyo Rural Health Center","District":"Senanga","FacilityType":"Rural Health Center"},"id":"Muoyo Rural Health Center"},{"type":"Point","coordinates":[27.35228,-16.13398],"properties":{"Facility":"Luyaba Rural Health Center","District":"Monze","FacilityType":"Rural Health Center"},"id":"Luyaba Rural Health Center"},{"type":"Point","coordinates":[28.262,-12.556],"properties":{"Facility":"Mufulira T. College Urban","District":"Mufulira","FacilityType":"Urban Health Center"},"id":"Mufulira T. College Urban"},{"type":"Point","coordinates":[27.40347,-17.14132],"properties":{"Facility":"Sinazeze Rural Health Center","District":"Sinazongwe","FacilityType":"Rural Health Center"},"id":"Sinazeze Rural Health Center"},{"type":"Point","coordinates":[28.52185,-13.551667],"properties":{"Facility":"Kaloko Rural Health Center","District":"Masaiti","FacilityType":"Rural Health Center"},"id":"Kaloko Rural Health Center"},{"type":"Point","coordinates":[25.8923339844,-17.1871944443],"properties":{"Facility":"Nyawa Rural Health Center","District":"Kazungula","FacilityType":"Rural Health Center"},"id":"Nyawa Rural Health Center"},{"type":"Point","coordinates":[28.670683,-10.306667],"properties":{"Facility":"Lubunda Rural Health Center","District":"Mwense","FacilityType":"Rural Health Center"},"id":"Lubunda Rural Health Center"},{"type":"Point","coordinates":[27.925917,-15.340033],"properties":{"Facility":"Mwembeshi Rural Health","District":"Kafue","FacilityType":"Rural Health Center"},"id":"Mwembeshi Rural Health"},{"type":"Point","coordinates":[22.452,-14.80005],"properties":{"Facility":"Luoke West Rural Health Center","District":"Kalabo","FacilityType":"Rural Health Center"},"id":"Luoke West Rural Health Center"},{"type":"Point","coordinates":[31.56637,-13.50142],"properties":{"Facility":"Malama Rural Health Center","District":"Mambwe","FacilityType":"Rural Health Center"},"id":"Malama Rural Health Center"},{"type":"Point","coordinates":[23.108,-13.539],"properties":{"Facility":"Zambezi Urban HAHC","District":"Zambezi","FacilityType":"Hospital Associated Health Center"},"id":"Zambezi Urban HAHC"},{"type":"Point","coordinates":[29.221383,-9.135217],"properties":{"Facility":"Nkosha Health Post","District":"Kaputa","FacilityType":"Health Post"},"id":"Nkosha Health Post"},{"type":"Point","coordinates":[22.1505666667,-14.50105],"properties":{"Facility":"Kaluwe Rural Health Center","District":"Kalabo","FacilityType":"Rural Health Center"},"id":"Kaluwe Rural Health Center"},{"type":"Point","coordinates":[28.884267,-11.173317],"properties":{"Facility":"Senama Urban Health Center","District":"Mansa","FacilityType":"Urban Health Center"},"id":"Senama Urban Health Center"},{"type":"Point","coordinates":[28.609533,-13.00455],"properties":{"Facility":"Lubuto Urban Health Center","District":"Ndola","FacilityType":"Urban Health Center"},"id":"Lubuto Urban Health Center"},{"type":"Point","coordinates":[27.783667,-12.969517],"properties":{"Facility":"Mukutuma Rural Health Center","District":"Lufwanyama","FacilityType":"Rural Health Center"},"id":"Mukutuma Rural Health Center"},{"type":"Point","coordinates":[28.20168,-16.19277],"properties":{"Facility":"Chikombola Rural Health","District":"Mazabuka","FacilityType":"Rural Health Center"},"id":"Chikombola Rural Health"},{"type":"Point","coordinates":[32.80041,-11.2174516667],"properties":{"Facility":"Mphyanakunda Rural Health","District":"Chama","FacilityType":"Rural Health Center"},"id":"Mphyanakunda Rural Health"},{"type":"Point","coordinates":[30.633507,-12.901603],"properties":{"Facility":"Chitambo HAHC","District":"Serenje","FacilityType":"Hospital Associated Health Center"},"id":"Chitambo HAHC"},{"type":"Point","coordinates":[31.184167,-10.22],"properties":{"Facility":"Location Urban Health Center","District":"Kasama","FacilityType":"Urban Health Center"},"id":"Location Urban Health Center"},{"type":"Point","coordinates":[28.242917,-12.540483],"properties":{"Facility":"Malcolm Watson HAHC","District":"Mufulira","FacilityType":"Hospital Associated Health Center"},"id":"Malcolm Watson HAHC"},{"type":"Point","coordinates":[28.408694,-13.131],"properties":{"Facility":"73 Independence Urban Health","District":"Luanshya","FacilityType":"Urban Health Center"},"id":"73 Independence Urban Health"},{"type":"Point","coordinates":[24.3729666667,-17.4376],"properties":{"Facility":"Zambezi Rural Health Center","District":"Sesheke","FacilityType":"Rural Health Center"},"id":"Zambezi Rural Health Center"},{"type":"Point","coordinates":[28.24817,-15.363052],"properties":{"Facility":"Lilanda Health Post","District":"Lusaka","FacilityType":"Health Post"},"id":"Lilanda Health Post"},{"type":"Point","coordinates":[25.769833,-12.396583],"properties":{"Facility":"Sentinel First Aid Station/ Kalumbila mine","District":"Solwezi","FacilityType":"Rural Health Center"},"id":"Sentinel First Aid Station/ Kalumbila mine"},{"type":"Point","coordinates":[28.209833,-12.787983],"properties":{"Facility":"Kamitondo Urban Health Center","District":"Kitwe","FacilityType":"Urban Health Center"},"id":"Kamitondo Urban Health Center"},{"type":"Point","coordinates":[23.2338,-14.3400333333],"properties":{"Facility":"Namayula Health Post","District":"Lukulu","FacilityType":"Health Post"},"id":"Namayula Health Post"},{"type":"Point","coordinates":[22.6751,-14.9892666667],"properties":{"Facility":"Liyoyelo Urban HC  (Kalabo)","District":"Kalabo","FacilityType":"Urban Health Center"},"id":"Liyoyelo Urban HC  (Kalabo)"},{"type":"Point","coordinates":[29.995767,-13.478283],"properties":{"Facility":"Nchimishi Rural Health Center","District":"Serenje","FacilityType":"Rural Health Center"},"id":"Nchimishi Rural Health Center"},{"type":"Point","coordinates":[29.071667,-9.793217],"properties":{"Facility":"Kawambwa District Hospital","District":"Kawambwa","FacilityType":"Hospital - Level I"},"id":"Kawambwa District Hospital"},{"type":"Point","coordinates":[29.867143,-10.80098],"properties":{"Facility":"Mwando Health Post","District":"Luwingu","FacilityType":"Health Post"},"id":"Mwando Health Post"},{"type":"Point","coordinates":[32.5339833333,-11.6003833333],"properties":{"Facility":"Fulaza Rural Health Center","District":"Chama","FacilityType":"Rural Health Center"},"id":"Fulaza Rural Health Center"},{"type":"Point","coordinates":[33.443033,-10.573017],"properties":{"Facility":"Muyombe Rural Health Center","District":"Isoka","FacilityType":"Rural Health Center"},"id":"Muyombe Rural Health Center"},{"type":"Point","coordinates":[27.450533,-13.1758],"properties":{"Facility":"Fungulwe Rural Health Center","District":"Lufwanyama","FacilityType":"Rural Health Center"},"id":"Fungulwe Rural Health Center"},{"type":"Point","coordinates":[26.78802,-16.38885],"properties":{"Facility":"Macha Mission Hospital","District":"Choma","FacilityType":"Hospital - Level I"},"id":"Macha Mission Hospital"},{"type":"Point","coordinates":[26.6667,-16.46723],"properties":{"Facility":"Siabunkululu Rural Health","District":"Kalomo","FacilityType":"Rural Health Center"},"id":"Siabunkululu Rural Health"},{"type":"Point","coordinates":[28.429481,-14.434655],"properties":{"Facility":"Kabwe General Hospital","District":"Kabwe","FacilityType":"Hospital - Level II"},"id":"Kabwe General Hospital"},{"type":"Point","coordinates":[29.683167,-13.55095],"properties":{"Facility":"Chalata Rural Health Center","District":"Mkushi","FacilityType":"Rural Health Center"},"id":"Chalata Rural Health Center"},{"type":"Point","coordinates":[27.9334,-13.451283],"properties":{"Facility":"St. Anthony Rural Health Center","District":"Mpongwe","FacilityType":"Rural Health Center"},"id":"St. Anthony Rural Health Center"},{"type":"Point","coordinates":[26.77615,-12.20475],"properties":{"Facility":"Luamala Rural Health Center","District":"Solwezi","FacilityType":"Rural Health Center"},"id":"Luamala Rural Health Center"},{"type":"Point","coordinates":[25.4858608246,-17.4516666667],"properties":{"Facility":"Ngwezi Rural Health Center","District":"Kazungula","FacilityType":"Rural Health Center"},"id":"Ngwezi Rural Health Center"},{"type":"Point","coordinates":[28.091933,-15.637533],"properties":{"Facility":"Chikupi Rural Health Center","District":"Kafue","FacilityType":"Rural Health Center"},"id":"Chikupi Rural Health Center"},{"type":"Point","coordinates":[24.324883,-11.424017],"properties":{"Facility":"Mukangala Rural Health Center","District":"Mwinilunga","FacilityType":"Rural Health Center"},"id":"Mukangala Rural Health Center"},{"type":"Point","coordinates":[29.395167,-13.616833],"properties":{"Facility":"Chibefwe Rural Health Center","District":"Mkushi","FacilityType":"Rural Health Center"},"id":"Chibefwe Rural Health Center"},{"type":"Point","coordinates":[28.441806,-13.15],"properties":{"Facility":"Allessandros Urban Health","District":"Luanshya","FacilityType":"Urban Health Center"},"id":"Allessandros Urban Health"},{"type":"Point","coordinates":[29.047717,-13.902533],"properties":{"Facility":"Chankomo Rural Health Center","District":"Kapirimposhi","FacilityType":"Rural Health Center"},"id":"Chankomo Rural Health Center"},{"type":"Point","coordinates":[28.640383,-12.968983],"properties":{"Facility":"Railway Surgery Urban Health","District":"Ndola","FacilityType":"Urban Health Center"},"id":"Railway Surgery Urban Health"},{"type":"Point","coordinates":[27.368967,-12.839767],"properties":{"Facility":"St. Mary's Rural Health Center","District":"Lufwanyama","FacilityType":"Rural Health Center"},"id":"St. Mary's Rural Health Center"},{"type":"Point","coordinates":[28.064,-14.782],"properties":{"Facility":"Liteta HAHC","District":"Chibombo","FacilityType":"Hospital Associated Health Center"},"id":"Liteta HAHC"},{"type":"Point","coordinates":[27.56745,-15.90227],"properties":{"Facility":"Munenga Rural Health Center","District":"Mazabuka","FacilityType":"Rural Health Center"},"id":"Munenga Rural Health Center"},{"type":"Point","coordinates":[26.60016,-17.50076],"properties":{"Facility":"Siamafumba Rural Health","District":"Kalomo","FacilityType":"Rural Health Center"},"id":"Siamafumba Rural Health"},{"type":"Point","coordinates":[32.0707333333,-14.35015],"properties":{"Facility":"Kakula Health Post","District":"Katete","FacilityType":"Health Post"},"id":"Kakula Health Post"},{"type":"Point","coordinates":[26.50695,-12.4839],"properties":{"Facility":"St. Francis Rural Heath Center","District":"Solwezi","FacilityType":"Rural Health Center"},"id":"St. Francis Rural Heath Center"},{"type":"Point","coordinates":[27.338983,-15.21775],"properties":{"Facility":"Myooye Rural Health Center","District":"Mumbwa","FacilityType":"Rural Health Center"},"id":"Myooye Rural Health Center"},{"type":"Point","coordinates":[28.735517,-9.542267],"properties":{"Facility":"Chabilikila Rural Health Center","District":"Nchelenge","FacilityType":"Rural Health Center"},"id":"Chabilikila Rural Health Center"},{"type":"Point","coordinates":[28.802017,-14.660517],"properties":{"Facility":"Mulungushi Agro Rural Health","District":"Chibombo","FacilityType":"Rural Health Center"},"id":"Mulungushi Agro Rural Health"},{"type":"Point","coordinates":[28.207433,-12.817383],"properties":{"Facility":"Company Clinic","District":"Kitwe","FacilityType":"Urban Health Center"},"id":"Company Clinic"},{"type":"Point","coordinates":[31.454367,-11.836667],"properties":{"Facility":"Mpika Urban Health Centre","District":"Mpika","FacilityType":"Hospital - Level I"},"id":"Mpika Urban Health Centre"},{"type":"Point","coordinates":[27.181183,-11.766783],"properties":{"Facility":"Kipushi Health Post","District":"Solwezi","FacilityType":"Health Post"},"id":"Kipushi Health Post"},{"type":"Point","coordinates":[31.283888,-10.317493],"properties":{"Facility":"Mulanshi Rural Health Center","District":"Kasama","FacilityType":"Rural Health Center"},"id":"Mulanshi Rural Health Center"},{"type":"Point","coordinates":[29.117242,-14.500688],"properties":{"Facility":"Lunsemfwa Rural Health Center","District":"Kapirimposhi","FacilityType":"Rural Health Center"},"id":"Lunsemfwa Rural Health Center"},{"type":"Point","coordinates":[28.261327,-15.427887],"properties":{"Facility":"Kanyama 1st Level Hospital","District":"Lusaka","FacilityType":"Urban Health Center"},"id":"Kanyama 1st Level Hospital"},{"type":"Point","coordinates":[28.074267,-13.290233],"properties":{"Facility":"Mukumbo Rural Health Center","District":"Lufwanyama","FacilityType":"Rural Health Center"},"id":"Mukumbo Rural Health Center"},{"type":"Point","coordinates":[22.4572333333,-14.99095],"properties":{"Facility":"Liumba Rural Health Center","District":"Kalabo","FacilityType":"Rural Health Center"},"id":"Liumba Rural Health Center"},{"type":"Point","coordinates":[28.222217,-12.542233],"properties":{"Facility":"Clinic 2 Urban Health Center","District":"Mufulira","FacilityType":"Urban Health Center"},"id":"Clinic 2 Urban Health Center"},{"type":"Point","coordinates":[26.988,-16.77458],"properties":{"Facility":"Njase Rural Health Center","District":"Choma","FacilityType":"Rural Health Center"},"id":"Njase Rural Health Center"},{"type":"Point","coordinates":[28.70038,-16.53617],"properties":{"Facility":"Siavonga HAHC","District":"Siavonga","FacilityType":"Hospital Associated Health Center"},"id":"Siavonga HAHC"},{"type":"Point","coordinates":[28.313,-15.433],"properties":{"Facility":"UTH Filter Clinic","District":"Lusaka","FacilityType":"Hospital Associated Health Center"},"id":"UTH Filter Clinic"},{"type":"Point","coordinates":[28.750972,-10.250637],"properties":{"Facility":"Kapamba Rural Health Center","District":"Mwense","FacilityType":"Rural Health Center"},"id":"Kapamba Rural Health Center"},{"type":"Point","coordinates":[29.546517,-13.79745],"properties":{"Facility":"Miloso Health Post","District":"Mkushi","FacilityType":"Health Post"},"id":"Miloso Health Post"},{"type":"Point","coordinates":[32.4370666667,-14.0590666667],"properties":{"Facility":"Chadiza rural Health Center","District":"Chadiza","FacilityType":"Urban Health Center"},"id":"Chadiza rural Health Center"},{"type":"Point","coordinates":[27.60407,-16.0017],"properties":{"Facility":"Magoye Rural Health Center","District":"Mazabuka","FacilityType":"Urban Health Center"},"id":"Magoye Rural Health Center"},{"type":"Point","coordinates":[31.435283,-11.904033],"properties":{"Facility":"Chibansa Urban Health Centre","District":"Mpika","FacilityType":"Urban Health Center"},"id":"Chibansa Urban Health Centre"},{"type":"Point","coordinates":[28.886967,-11.203383],"properties":{"Facility":"Mansa Central Urban Clinic","District":"Mansa","FacilityType":"Urban Health Center"},"id":"Mansa Central Urban Clinic"},{"type":"Point","coordinates":[29.02325,-8.5391],"properties":{"Facility":"Chipungu Rural Health Center","District":"Chiengi","FacilityType":"Rural Health Center"},"id":"Chipungu Rural Health Center"},{"type":"Point","coordinates":[28.152133,-12.720217],"properties":{"Facility":"Cosetco Health Post","District":"Kitwe","FacilityType":"Health Post"},"id":"Cosetco Health Post"},{"type":"Point","coordinates":[30.0681,-11.66775],"properties":{"Facility":"Bwalya Mponda","District":"Samfya","FacilityType":"Rural Health Center"},"id":"Bwalya Mponda"},{"type":"Point","coordinates":[31.3383166667,-13.7684833333],"properties":{"Facility":"Chikowa Rural Health Center","District":"Petauke","FacilityType":"Rural Health Center"},"id":"Chikowa Rural Health Center"},{"type":"Point","coordinates":[26.388317,-12.159717],"properties":{"Facility":"Kimasala Urban Health Center","District":"Solwezi","FacilityType":"Urban Health Center"},"id":"Kimasala Urban Health Center"},{"type":"Point","coordinates":[28.6,-12.98333],"properties":{"Facility":"Miseshi Urban Health Center","District":"Kitwe","FacilityType":"Urban Health Center"},"id":"Miseshi Urban Health Center"},{"type":"Point","coordinates":[28.703583,-9.539067],"properties":{"Facility":"Kapambwe Health Post","District":"Nchelenge","FacilityType":"Health Post"},"id":"Kapambwe Health Post"},{"type":"Point","coordinates":[26.58742,-15.63422],"properties":{"Facility":"Banamwaze Rural Health","District":"Itezhi-tezhi","FacilityType":"Rural Health Center"},"id":"Banamwaze Rural Health"},{"type":"Point","coordinates":[22.189633,-13.1539],"properties":{"Facility":"Nyatanda Rural Health Center","District":"Chavuma","FacilityType":"Health Post"},"id":"Nyatanda Rural Health Center"},{"type":"Point","coordinates":[33.2745,-12.3731],"properties":{"Facility":"Kapichila Rural Health Center","District":"Lundazi","FacilityType":"Rural Health Center"},"id":"Kapichila Rural Health Center"},{"type":"Point","coordinates":[31.36409,-8.84582],"properties":{"Facility":"Mbala General Hospital","District":"Mbala","FacilityType":"Hospital - Level II"},"id":"Mbala General Hospital"},{"type":"Point","coordinates":[28.703017,-10.008417],"properties":{"Facility":"Chipunka Rural Health Center","District":"Kawambwa","FacilityType":"Rural Health Center"},"id":"Chipunka Rural Health Center"},{"type":"Point","coordinates":[26.938967,-12.3505],"properties":{"Facility":"Kanuma Rural Health Center","District":"Solwezi","FacilityType":"Rural Health Center"},"id":"Kanuma Rural Health Center"},{"type":"Point","coordinates":[30.3588,-13.51515],"properties":{"Facility":"Kaseba Health Post","District":"Serenje","FacilityType":"Health Post"},"id":"Kaseba Health Post"},{"type":"Point","coordinates":[33.1504016667,-11.200765],"properties":{"Facility":"Chama District Hospital","District":"Chama","FacilityType":"Hospital - Level I"},"id":"Chama District Hospital"},{"type":"Point","coordinates":[23.1356166667,-15.2509166667],"properties":{"Facility":"Lewanika General Hospital","District":"Mongu","FacilityType":"Hospital - Level II"},"id":"Lewanika General Hospital"},{"type":"Point","coordinates":[31.401517,-11.83795],"properties":{"Facility":"Tazara Training","District":"Mpika","FacilityType":"Rural Health Center"},"id":"Tazara Training"},{"type":"Point","coordinates":[27.072567,-15.40725],"properties":{"Facility":"Nalubanda Rural Health Center","District":"Mumbwa","FacilityType":"Rural Health Center"},"id":"Nalubanda Rural Health Center"},{"type":"Point","coordinates":[23.6539333333,-15.4765333333],"properties":{"Facility":"Nalikwanda Stage II Rural","District":"Mongu","FacilityType":"Rural Health Center"},"id":"Nalikwanda Stage II Rural"},{"type":"Point","coordinates":[31.717002,-8.98398],"properties":{"Facility":"Isofu Rural Health Center","District":"Mbala","FacilityType":"Rural Health Center"},"id":"Isofu Rural Health Center"},{"type":"Point","coordinates":[31.224383,-10.14195],"properties":{"Facility":"Milima Rural Health Center","District":"Kasama","FacilityType":"Rural Health Center"},"id":"Milima Rural Health Center"},{"type":"Point","coordinates":[32.050995,-10.55145],"properties":{"Facility":"Chinsali HAHC/Location Urban Health Center","District":"Chinsali","FacilityType":"Hospital Associated Health Center"},"id":"Chinsali HAHC/Location Urban Health Center"},{"type":"Point","coordinates":[23.38404,-16.4666983333],"properties":{"Facility":"Kaanja Rural Health Center","District":"Shangombo","FacilityType":"Rural Health Center"},"id":"Kaanja Rural Health Center"},{"type":"Point","coordinates":[23.7169166667,-15.2715333333],"properties":{"Facility":"Lukalanya Rural Health Center","District":"Mongu","FacilityType":"Rural Health Center"},"id":"Lukalanya Rural Health Center"},{"type":"Point","coordinates":[28.137583,-12.867217],"properties":{"Facility":"Chibote Health Post","District":"Kalulushi","FacilityType":"Health Post"},"id":"Chibote Health Post"},{"type":"Point","coordinates":[26.399933,-12.1911],"properties":{"Facility":"Solwezi Urban Health Center","District":"Solwezi","FacilityType":"Urban Health Center"},"id":"Solwezi Urban Health Center"},{"type":"Point","coordinates":[27.25015,-16.43376],"properties":{"Facility":"Siatontola Rural Health Center","District":"Monze","FacilityType":"Rural Health Center"},"id":"Siatontola Rural Health Center"},{"type":"Point","coordinates":[27.49545,-12.2215],"properties":{"Facility":"Luamfula ZFDS Rural Health","District":"Solwezi","FacilityType":"Rural Health Center"},"id":"Luamfula ZFDS Rural Health"},{"type":"Point","coordinates":[28.329335,-15.40577],"properties":{"Facility":"Kalingalinga Urban Health","District":"Lusaka","FacilityType":"Urban Health Center"},"id":"Kalingalinga Urban Health"},{"type":"Point","coordinates":[28.671717,-13.555567],"properties":{"Facility":"Chilese Rural Health Center","District":"Masaiti","FacilityType":"Rural Health Center"},"id":"Chilese Rural Health Center"},{"type":"Point","coordinates":[31.9736,-12.417917],"properties":{"Facility":"Nabwalya Rural Health Centre","District":"Mpika","FacilityType":"Rural Health Center"},"id":"Nabwalya Rural Health Centre"},{"type":"Point","coordinates":[28.155,-13.508],"properties":{"Facility":"Mpongwe Mission HAHC","District":"Mpongwe","FacilityType":"Hospital Associated Health Center"},"id":"Mpongwe Mission HAHC"},{"type":"Point","coordinates":[26.87083,-15.86677],"properties":{"Facility":"Kabulamwanda Rural Health","District":"Namwala","FacilityType":"Rural Health Center"},"id":"Kabulamwanda Rural Health"},{"type":"Point","coordinates":[25.92585,-12.4406],"properties":{"Facility":"Maheba B Rural Health Center","District":"Solwezi","FacilityType":"Rural Health Center"},"id":"Maheba B Rural Health Center"},{"type":"Point","coordinates":[23.8240833333,-15.5745833333],"properties":{"Facility":"Lukweta Rural Health Center","District":"Mongu","FacilityType":"Rural Health Center"},"id":"Lukweta Rural Health Center"},{"type":"Point","coordinates":[28.25365,-12.556533],"properties":{"Facility":"Chibolya Urban HC","District":"Mufulira","FacilityType":"Urban Health Center"},"id":"Chibolya Urban HC"},{"type":"Point","coordinates":[25.85058,-17.84442],"properties":{"Facility":"Boma Urban Health Center","District":"Livingstone","FacilityType":"Urban Health Center"},"id":"Boma Urban Health Center"},{"type":"Point","coordinates":[28.71715,-13.205167],"properties":{"Facility":"Fiwale Rural Health Center","District":"Masaiti","FacilityType":"Rural Health Center"},"id":"Fiwale Rural Health Center"},{"type":"Point","coordinates":[25.9990558624,-17.4928611109],"properties":{"Facility":"Kabuyu Rural Health Center","District":"Kazungula","FacilityType":"Rural Health Center"},"id":"Kabuyu Rural Health Center"},{"type":"Point","coordinates":[32.65235,-13.3342],"properties":{"Facility":"Chinunda Rural Health Center","District":"Chipata","FacilityType":"Rural Health Center"},"id":"Chinunda Rural Health Center"},{"type":"Point","coordinates":[32.6423,-13.6247166667],"properties":{"Facility":"Kapata Urban Health Center","District":"Chipata","FacilityType":"Hospital Associated Health Center"},"id":"Kapata Urban Health Center"},{"type":"Point","coordinates":[26.78785,-16.38827],"properties":{"Facility":"Macha Mission Hospital HAHC","District":"Choma","FacilityType":"Rural Health Center"},"id":"Macha Mission Hospital HAHC"},{"type":"Point","coordinates":[28.405,-13.129639],"properties":{"Facility":"Luanshya Mine Hospital","District":"Luanshya","FacilityType":"Hospital - Level I"},"id":"Luanshya Mine Hospital"},{"type":"Point","coordinates":[25.4058055878,-17.8390277778],"properties":{"Facility":"Katombora Health Post","District":"Kazungula","FacilityType":"Health Post"},"id":"Katombora Health Post"},{"type":"Point","coordinates":[25.1952495575,-17.7309444449],"properties":{"Facility":"Mambova Rural Health Center","District":"Kazungula","FacilityType":"Rural Health Center"},"id":"Mambova Rural Health Center"},{"type":"Point","coordinates":[22.9004,-13.77735],"properties":{"Facility":"Kucheka Rural Health Center","District":"Zambezi","FacilityType":"Rural Health Center"},"id":"Kucheka Rural Health Center"},{"type":"Point","coordinates":[29.83355,-9.4707],"properties":{"Facility":"Kalabwe Rural Health Center","District":"Mporokoso","FacilityType":"Rural Health Center"},"id":"Kalabwe Rural Health Center"},{"type":"Point","coordinates":[27.9395,-12.6209],"properties":{"Facility":"Musenga Health Post","District":"Chingola","FacilityType":"Health Post"},"id":"Musenga Health Post"},{"type":"Point","coordinates":[32.7669333333,-13.7098666667],"properties":{"Facility":"Katandala Rural Health Center","District":"Chipata","FacilityType":"Rural Health Center"},"id":"Katandala Rural Health Center"},{"type":"Point","coordinates":[24.4506033333,-13.95078],"properties":{"Facility":"West Five Rural Health Center","District":"Lukulu","FacilityType":"Rural Health Center"},"id":"West Five Rural Health Center"},{"type":"Point","coordinates":[28.20525,-12.790383],"properties":{"Facility":"Buchi Main Urban Health","District":"Kitwe","FacilityType":"Urban Health Center"},"id":"Buchi Main Urban Health"},{"type":"Point","coordinates":[24.77635,-13.201383],"properties":{"Facility":"Matushi Rural Health Center","District":"Mufumbwe","FacilityType":"Rural Health Center"},"id":"Matushi Rural Health Center"},{"type":"Point","coordinates":[31.233633,-9.3509],"properties":{"Facility":"Senga Rural Health Center","District":"Mbala","FacilityType":"Rural Health Center"},"id":"Senga Rural Health Center"},{"type":"Point","coordinates":[33.0255166667,-12.3511],"properties":{"Facility":"Kamsaro Health Post","District":"Lundazi","FacilityType":"Health Post"},"id":"Kamsaro Health Post"},{"type":"Point","coordinates":[29.57615,-8.406667],"properties":{"Facility":"Lambwe Chomba Rural Health","District":"Chiengi","FacilityType":"Rural Health Center"},"id":"Lambwe Chomba Rural Health"},{"type":"Point","coordinates":[26.37257,-15.68675],"properties":{"Facility":"Lubanda Rural Health Center","District":"Itezhi-tezhi","FacilityType":"Rural Health Center"},"id":"Lubanda Rural Health Center"},{"type":"Point","coordinates":[28.035317,-13.874883],"properties":{"Facility":"Mwinuna Rural Health Center","District":"Mpongwe","FacilityType":"Rural Health Center"},"id":"Mwinuna Rural Health Center"},{"type":"Point","coordinates":[27.2708,-16.52385],"properties":{"Facility":"Kasiya Rural Health Center","District":"Choma","FacilityType":"Rural Health Center"},"id":"Kasiya Rural Health Center"},{"type":"Point","coordinates":[27.27415,-15.44075],"properties":{"Facility":"Muchabi Rural Health Center","District":"Mumbwa","FacilityType":"Rural Health Center"},"id":"Muchabi Rural Health Center"},{"type":"Point","coordinates":[32.63717,-13.60831],"properties":{"Facility":"Chipata Central Hospital","District":"Chipata","FacilityType":"Hospital - Level II"},"id":"Chipata Central Hospital"},{"type":"Point","coordinates":[22.6079,-14.9841166667],"properties":{"Facility":"Yuka Mission Hospital","District":"Kalabo","FacilityType":"Hospital - Level I"},"id":"Yuka Mission Hospital"},{"type":"Point","coordinates":[23.006817,-13.355317],"properties":{"Facility":"Chinyingi Rural Health Center","District":"Zambezi","FacilityType":"Rural Health Center"},"id":"Chinyingi Rural Health Center"},{"type":"Point","coordinates":[28.429167,-13.126139],"properties":{"Facility":"TVTC Urban Health Center","District":"Luanshya","FacilityType":"Urban Health Center"},"id":"TVTC Urban Health Center"},{"type":"Point","coordinates":[27.817423,-12.367262],"properties":{"Facility":"Shaft 1 Clinic","District":"Chililabombwe","FacilityType":"Urban Health Center"},"id":"Shaft 1 Clinic"},{"type":"Point","coordinates":[28.007833,-12.888267],"properties":{"Facility":"St. Josephs Mission Rural Health","District":"Lufwanyama","FacilityType":"Rural Health Center"},"id":"St. Josephs Mission Rural Health"},{"type":"Point","coordinates":[28.791183,-9.751767],"properties":{"Facility":"Mbereshi Mission Hospital","District":"Kawambwa","FacilityType":"Hospital - Level I"},"id":"Mbereshi Mission Hospital"},{"type":"Point","coordinates":[29.041583,-9.039667],"properties":{"Facility":"Kabole Rural Health Center","District":"Chiengi","FacilityType":"Rural Health Center"},"id":"Kabole Rural Health Center"},{"type":"Point","coordinates":[27.46716,-16.27123],"properties":{"Facility":"Monze Urban Health Center","District":"Monze","FacilityType":"Urban Health Center"},"id":"Monze Urban Health Center"},{"type":"Point","coordinates":[22.25655,-16.5689],"properties":{"Facility":"Sipuma Rural Health Center","District":"Shangombo","FacilityType":"Rural Health Center"},"id":"Sipuma Rural Health Center"},{"type":"Point","coordinates":[25.0513833333,-14.8367166667],"properties":{"Facility":"Namilangi Rural Health Center","District":"Kaoma","FacilityType":"Rural Health Center"},"id":"Namilangi Rural Health Center"},{"type":"Point","coordinates":[28.325056,-13.104056],"properties":{"Facility":"Section 23 Urban Health Center","District":"Luanshya","FacilityType":"Urban Health Center"},"id":"Section 23 Urban Health Center"},{"type":"Point","coordinates":[24.1842166667,-14.5512166667],"properties":{"Facility":"Mayukwayukwa Rural Health","District":"Kaoma","FacilityType":"Rural Health Center"},"id":"Mayukwayukwa Rural Health"},{"type":"Point","coordinates":[30.206367,-15.1207],"properties":{"Facility":"Kasinsa Rural Health Centre","District":"Luangwa","FacilityType":"Rural Health Center"},"id":"Kasinsa Rural Health Centre"},{"type":"Point","coordinates":[30.4401,-12.93735],"properties":{"Facility":"Muchinka Rural Health Center","District":"Serenje","FacilityType":"Rural Health Center"},"id":"Muchinka Rural Health Center"},